"stop_id","stop_name","stop_lon","stop_lat"
"5033034","Eckartshausen, Eckartshausen-Ilshofen",9.9370676718,49.1523612898
"5032003","Heilbronn, Heilbronn Hauptbahnhof",9.2077531492,49.1430862882
"5033014","Crailsheim, Crailsheim",10.0642735829,49.1384535242
"5032302","Neuhütten, Post",9.485391200699999,49.1051690228
"5032319","Neuhütten, Friedhof",9.4832588228,49.1013654127
"5032002","Nordheim, Nordheim",9.1489369461,49.1096379215
"5032318","Wüstenrot, Weihenbronn",9.4810614205,49.0950532881
"5032321","Neuhütten, B39 Abzweig",9.4787061392,49.0936153929
"5033033","Schwäbisch Hall, Schwäbisch Hall-Hessental",9.7678004796,49.096890665800004
"5032317","Wüstenrot, Freibad",9.4634813449,49.0878418489
"5032450","Wüstenrot, Schmellenhof",9.4384059327,49.0853952245
"5032451","Wüstenrot, Silberstollen",9.4524497736,49.085170111800004
"5033206","Mainhardt, Bubenorbis",9.6110753144,49.0852118314
"5032316","Wüstenrot, Schule",9.461692865,49.083955520900005
"5032449","Wüstenrot, Stangenbach",9.4349005726,49.0821804015
"5032315","Wüstenrot, Schönblickstraße",9.455500736,49.0819749536
"5033222","Mainhardt, Hohenstraßen Ortsmitte",9.5314626,49.0808315353
"5032301","Wüstenrot, Firma Zügel",9.4619233959,49.0807714531
"5033204","Mainhardt, Schule",9.5561009041,49.0807063422
"5033201","Mainhardt, Wendeplatte",9.5571822525,49.080701121800004
"5033221","Mainhardt, Hohenstraßen Grüner Baum",9.532927147,49.0782620691
"5033220","Mainhardt, Stock",9.5792776051,49.077328151500005
"5032320","Wüstenrot, Vorderbüchelberg Abzweig",9.4638418177,49.0765824983
"5033219","Mainhardt, Industrie",9.5588850224,49.076304805300005
"5033223","Mainhardt, Turmuhrenmuseum",9.5568986333,49.0761525614
"5033214","Mainhardt, B14",9.5568810222,49.07580196000001
"5033218","Mainhardt, Maßstabfabrik",9.5486194642,49.0750682582
"5007566","Großerlach, Hals",9.4989401174,49.0741969387
"5004970","Großerlach, Böhringsweiler",9.511150321599999,49.0730104617
"5032448","Wüstenrot, Lohmühle",9.4243180499,49.0708450447
"5004969","Großerlach, Altfürstenhütte",9.5066711697,49.0699639765
"5033215","Mainhardt, Abzw. Hohenegarten",9.534877348,49.069953459400004
"5033217","Mainhardt, Abzw. Hohenegarten B14",9.535146601700001,49.0695385795
"5032001","Lauffen (N), Lauffen (N)",9.1460861844,49.07647053589999
"5003730","Spiegelberg, Vorderbüchelberg",9.4563460811,49.0651926398
"5004968","Großerlach, Neufürstenhütte",9.49965395,49.06350240570001
"5032313","Wüstenrot, Neulautern",9.4324623232,49.059952494
"5004967","Großerlach, Kleinerlach",9.4993765026,49.0590345975
"5007504","Großerlach, Schule",9.5208918918,49.0570061106
"5007505","Großerlach, Liemersbach",9.5404691494,49.0555671918
"5004965","Großerlach, Rathaus",9.5149028586,49.053400254699994
"5032314","Wüstenrot, Lautertal",9.4380857225,49.0536998227
"5004966","Großerlach, Oberfischbach",9.4975237624,49.052999998000004
"5007580","Spiegelberg, Denteltal",9.4528610515,49.052150046899996
"5004964","Großerlach, Mittelfischbach Abzweigung",9.5045788111,49.049867095799996
"5005045","Spiegelberg, Großhöchberg",9.4696641671,49.049574039
"5004908","Großerlach, Abzweig Neufürstenhütte",9.5141505299,49.0494381448
"5005596","Gronau, Prevorst Feuerwehr",9.3952779489,49.0503567218
"5006798","Gronau, Prevorst Löwen",9.3977127625,49.0503213684
"5004960","Spiegelberg, Gieshof",9.4435735672,49.0477441266
"5007506","Grab, Schönbronn",9.5874219265,49.0460217976
"5007514","Großerlach, Erlach",9.5340500955,49.0425946775
"5032310","Beilstein, Schulzentrum",9.3115862616,49.0445079085
"5007518","Grab, Schwalbenflug",9.585139232,49.0415104212
"5004962","Großerlach, Erlach Abzweig",9.518806734,49.0407220176
"5032304","Beilstein, Langhans",9.3130178583,49.0415906281
"5004959","Spiegelberg, Löwensteiner Straße",9.4467077537,49.0387670064
"5005143","Grab, Limesweg",9.579073338,49.038591666799995
"5004961","Spiegelberg, Großhöchberger Straße",9.4468639691,49.0378851849
"5032322","Beilstein, Apotheke",9.3157683115,49.0396228702
"5032324","Beilstein, Schmidhausen Abzweig",9.3299078128,49.0391875952
"5005044","Spiegelberg, Schule",9.4501361555,49.036748450699996
"5007449","Spiegelberg, Parkplatz Zollstock",9.4268733381,49.0368729339
"5004958","Spiegelberg, Sulzbacher Straße",9.4466335376,49.0365912301
"5005047","Spiegelberg, Hüttlen",9.4357337707,49.0366419488
"5005106","Grab, Hohenbrach",9.5594913825,49.0364853227
"5006996","Grab, Friedhof",9.5788308072,49.036551695
"5032323","Beilstein, Breslauer Straße",9.3212859728,49.0383847031
"5007507","Sulzbach (M), Liemannsklinge Abzweig",9.5339759861,49.035680162199995
"5003347","Gronau, Krone",9.3409739717,49.035378738700004
"5004906","Sulzbach (M), Berwinkel",9.5161552415,49.032991797200005
"5006672","Jux, Kindergarten",9.437561025499999,49.0329123364
"5003682","Kirchheim (N), Gemeindehalle",9.138041188799999,49.043192351200005
"5005724","Kirchheim (N), Schillerplatz",9.1445504709,49.0426448307
"5007515","Grab, Morbach",9.593643012700001,49.031998338099996
"5005615","Gronau, Schule",9.336990673899999,49.0328367351
"5004957","Spiegelberg, Dauernberg",9.459761746,49.030523951899994
"5005046","Jux, Jux",9.4385374635,49.0304268307
"5005048","Nassach, Nassach",9.4090379247,49.0300767256
"5007538","Grab, Butzberg",9.5979924199,49.0297728087
"5005725","Hohenstein, Post",9.120759230900001,49.0406221339
"5003356","Oberstenfeld, Mineralfreibad",9.3176161428,49.031264236300004
"5005700","Bönnigheim, Burgplatz",9.090739381,49.041980606500005
"5005723","Kirchheim (N), Kirchheim (N)",9.150881928899999,49.0376371629
"5005727","Bönnigheim, Schulzentrum",9.0975350411,49.0408150657
"5005726","Bönnigheim, Kirchheimer Straße",9.1008582665,49.040596385
"5004954","Spiegelberg, Dauernberg Abzweig",9.450847189100001,49.0276637424
"5005729","Bönnigheim, Freibad",9.0818887615,49.041393802500004
"5003593","Bönnigheim, Burgermühle",9.1077628209,49.039385186000004
"5005698","Bönnigheim, Am Schloss",9.0928558079,49.04002765719999
"5005049","Nassach, Kurzach",9.3926336964,49.0273013093
"5005613","Oberstenfeld, Katholische Kirche",9.3178458768,49.0286918925
"5007508","Sulzbach (M), Eschenstruet",9.539789430599999,49.0256719346
"5005142","Grab, Trauzenbach",9.5704687035,49.025299384
"5005697","Bönnigheim, Hofener Straße",9.098991617900001,49.0373429208
"5005614","Oberstenfeld, Kreuzstraße",9.3291952115,49.026564880100004
"5006840","Bönnigheim, Schlossfeld",9.111462321800001,49.0362524496
"5007509","Sulzbach (M), Bushof Abzweig",9.5390339821,49.02409287139999
"5003338","Oberstenfeld, Schule",9.3177073807,49.0262734275
"5005593","Oberstenfeld, Beilsteiner Straße",9.3194567752,49.0261427008
"5006855","Bönnigheim, Schlossbergallee",9.1100489884,49.0341496928
"5006890","Gemmrigheim, Sportplatz",9.1545007895,49.0314728558
"5005612","Oberstenfeld, Rathaus",9.319552952799999,49.0240832658
"5005594","Oberstenfeld, Lichtenberger Straße",9.3237902497,49.023873608100004
"5004956","Oppenweiler, Bernhalden",9.457558996,49.0214687626
"5007510","Sulzbach (M), Hager",9.5409692515,49.0209905429
"5007519","Grab, Mannenweiler",9.6022558567,49.0215948254
"5007581","Jux, Wetzsteinstollen",9.4332169898,49.0208794495
"5005141","Grab, Frankenweiler",9.5626603473,49.0203831457
"5032325","Cleebronn, Tripsdrill Erlebnispark",9.0522561313,49.0352696678
"5005607","Winzerhausen, Raiffeisenstraße",9.264925579,49.0234485809
"5005722","Gemmrigheim, Papierfabrik",9.154667596700001,49.0279477758
"5005611","Oberstenfeld, Nussbaumweg",9.3162064195,49.0203068678
"5004955","Sulzbach (M), Siebersbach",9.4683623699,49.0173339882
"5006721","Hofen (LB), Aussiedlerhöfe",9.1129509441,49.0293181842
"5006812","Gemmrigheim, Kurze Straße",9.1598551572,49.025270060299995
"5005140","Murrhardt, Hördthof",9.5653047804,49.0160630138
"5032326","Cleebronn, Wildparadies Tripsdrill",9.0530448124,49.0310520703
"5005720","Gemmrigheim, Fährgergasse",9.1553538466,49.0243860246
"5005721","Gemmrigheim, Niedere Klinge",9.1674926448,49.023505750599995
"5006813","Gemmrigheim, Adlerweg",9.1678858488,49.0225250502
"5005696","Hofen (LB), Hofen (LB)",9.1155668977,49.0252152374
"5006966","Murrhardt, Steinberg Halde",9.588146536,49.013538855600004
"5006811","Gemmrigheim, Amselweg",9.162809405199999,49.021336415499995
"5007511","Sulzbach (M), Zwerenberg",9.544838022199999,49.012187086800004
"5005062","Murrhardt, Steinberg",9.5845566755,49.0116687829
"5006700","Hofen (LB), Sonnenhalde",9.1058538122,49.022877698
"5003502","Ottmarsheim, Ilsfelder Straße",9.2062546887,49.016743740299994
"5005579","Ottmarsheim, Rathaus",9.2027277619,49.016794968800006
"5005610","Großbottwar, Sauserhof",9.309363334999999,49.012565344900004
"5003355","Oberstenfeld, Lichtenberg",9.3352016405,49.0108475038
"5005042","Sulzbach (M), Lautern",9.4864654726,49.007763394099996
"5006516","Ottmarsheim, Carl-Zeiss-Straße",9.2111516944,49.014172136599996
"5003335","Hof und Lembach, Talstraße",9.3120942775,49.0098963382
"5005620","Winzerhausen, Holzweilerhof",9.250265453,49.012016576300006
"5003336","Hof und Lembach, Kelter",9.323121751399999,49.00934439
"5006524","Ottmarsheim, Besigheimer Straße",9.1983545333,49.0137453103
"5005695","Erligheim, Erligheim",9.0984083464,49.0190986984
"5005139","Murrhardt, Kieselhof",9.563400216,49.0060012278
"5005079","Murrhardt, Steinberg Fritzhof",9.584692672800001,49.0057782863
"5004953","Sulzbach (M), Lautertal",9.4932061036,49.0051989834
"5006515","Ottmarsheim, Carl-Benz-Straße",9.2090488929,49.0114963576
"5006971","Großbottwar, Flickenwiesen",9.301675522,49.0071725425
"5004904","Sulzbach (M), Schloss Lautereck",9.4975495844,49.003534765699996
"5004905","Sulzbach (M), Marktplatz",9.5013665606,49.002547080300005
"5004910","Sulzbach (M), Murrhardter Straße",9.5058355506,49.002527551300005
"5005138","Murrhardt, Murrhärle",9.5664872799,49.00221841730001
"5005619","Großbottwar, Aussiedlerhöfe",9.2822846543,49.0055851623
"5004911","Sulzbach (M), Hummelbühl",9.5161284546,49.0013489136
"5005785","Walheim, Walheim",9.1520857083,49.0108934068
"5006863","Sulzbach (M), Gartenstraße",9.4962799522,49.000932541699996
"5005883","Ochsenbach, Buchenrain",8.9785062541,49.0221336086
"5003578","Großbottwar, In den Frauengärten",9.2899699098,49.003893547400004
"5005609","Großbottwar, Kelter",9.2989201925,49.003564932
"5004952","Sulzbach (M), Sulzbach (M)",9.500269453500001,48.9994495852
"5005712","Ochsenbach, Kirche",8.9828818869,49.02085745590001
"5033032","Gaildorf, Gaildorf West",9.753923325,49.0042921569
"5003577","Großbottwar, Hauptstraße",9.292846220400001,49.0026093997
"5005714","Häfnerhaslach, Dorfbrunnen",8.9185881034,49.0252903632
"5006652","Kleinaspach, Sinzenburg",9.3467830832,48.999546198199994
"5005606","Großbottwar, Bachstraße",9.291673475,49.000724049199995
"5005711","Spielberg, Ochsen",8.9970054307,49.0171269377
"5004903","Oppenweiler, Ellenweiler",9.4747031016,48.9969410465
"5005608","Großbottwar, Rosenplatz",9.293910485,48.999990006
"5004912","Sulzbach (M), Bartenbach",9.5349347635,48.9963085229
"5003346","Spielberg, Brunnenwiesen",9.0000950972,49.0159759853
"5007205","Mundelsheim, Ottmarsheimer Straße",9.220148965,49.0022948049
"5005057","Murrhardt, Hinterbüchelberg",9.6269758523,48.9965909327
"5003553","Großbottwar, Schulzentrum",9.2880667151,48.9985750401
"5005706","Freudental, Besigheimer Straße",9.0634656621,49.010149372899996
"5005713","Ochsenbach, Kirbachhof",8.959996766,49.0181812884
"5005575","Mundelsheim, Hessigheimer Straße",9.2048254738,49.001648701600004
"5005580","Besigheim, Neusatz",9.1513803441,49.0037007271
"5005605","Großbottwar, Waldstraße",9.289671715799999,48.997267167800004
"5005735","Häfnerhaslach, Alte Mühle",8.935920498,49.0188449536
"5005707","Freudental, Post",9.0598140924,49.008595725199996
"5007423","Löchgau, Erligheimer Straße",9.104516675400001,49.0047240733
"5006843","Kleinaspach, Sonnenhof",9.3572911039,48.99362428999999
"5003588","Besigheim, Oberamteigasse",9.141672055,49.002166478300005
"5004919","Murrhardt, Siegelsberg",9.591606346,48.991742326499995
"5005582","Besigheim, Kelterplatz",9.1397827709,49.0010178135
"5005708","Freudental, Gewerbegebiet",9.056216421,49.0061607179
"5005360","Allmersbach a. W., Allmersbach am Weinberg",9.3927050321,48.991234012700005
"5005705","Löchgau, Freudentaler Straße",9.099866260199999,49.003046708899994
"5004902","Oppenweiler, Reichenberg",9.4631761598,48.990324831600006
"5005715","Besigheim, Auf dem Kies",9.1440440236,49.000059395899996
"5005362","Kleinaspach, Schafhaus",9.366006325199999,48.991366896799995
"5005704","Löchgau, Wette",9.105685997,49.001854548500006
"5003503","Hohenhaslach, Brombergerhöfe",9.0015712544,49.0091959982
"5003672","Kleinaspach, Ortsmitte",9.3609472572,48.9909062818
"5005703","Löchgau, Besigheimer Straße",9.1103998774,49.001301596999994
"5005574","Mundelsheim, Lange Straße",9.2066474027,48.9960793766
"5007598","Löchgau, Sportplatz",9.0898881787,49.002524436
"5007564","Löchgau, Steinbachbrücke",9.1127635403,49.0009935702
"5005059","Murrhardt, Karnsberg",9.612073283700001,48.98933347609999
"5004918","Murrhardt, Gymnasium",9.5845490858,48.988855902699996
"5006651","Kleinaspach, Hardtwaldhalle",9.3593140859,48.9899132694
"5005581","Besigheim, Jahnstraße",9.148179304900001,48.998156820400006
"5003564","Hessigheim, Schule",9.1882394318,48.995904155599995
"5005984","Murrhardt, Harbach",9.552349449,48.9880975268
"5005359","Rietenau, Rietenau",9.4071123634,48.9885403321
"5005361","Allmersbach a. W., Röhrach",9.3800616943,48.988911507000005
"5006963","Besigheim, Freibad/FitKom",9.153410191699999,48.997124865699995
"5003469","Besigheim, Elserring",9.1602001299,48.996531121
"5003468","Besigheim, Albert-Schweitzer-Straße",9.1572076474,48.996616180800004
"5005583","Besigheim, Besigheim",9.1367393663,48.9976045064
"5005563","Besigheim, Enzplatz",9.1399362472,48.997276944000006
"5003536","Besigheim, Paul-Gerhardt-Haus",9.1469180039,48.9967916515
"5005136","Murrhardt, Robert-Franck-Straße",9.581740096099999,48.9869997578
"5004951","Oppenweiler, Murrtalschule",9.4606659849,48.98631543530001
"5007565","Löchgau, Heinkelstraße",9.1149842241,48.9979700471
"5005716","Besigheim, Friedrich-Breining-Straße",9.155482423799999,48.9955394837
"5003510","Besigheim, Ulrichstraße",9.1510143388,48.9956893138
"5004917","Murrhardt, Erich-Schumm-Straße",9.5833291182,48.9861824367
"5003561","Besigheim, Martinshaus",9.1375815706,48.995769126899994
"5005578","Hessigheim, Sattlerei Eisele",9.184552907699999,48.9930596549
"5003501","Besigheim, Kirschhaldenweg",9.1333994652,48.9955762349
"5005576","Hessigheim, Gartenstraße",9.190206748,48.99219619989999
"5004914","Murrhardt, Bodelschwinghschule",9.555467082,48.9846295763
"5033031","Fichtenberg, Fichtenberg",9.7025809264,48.9873516194
"5004901","Oppenweiler, Ortsmitte",9.4590759644,48.9842715864
"5005630","Hohenhaslach, Schule",9.0226863454,49.00169433159999
"5007085","Besigheim, Katholische Kirche",9.1352800326,48.9936497406
"5003506","Besigheim, Sachsenheimer Weg",9.1298830635,48.9938807709
"5003567","Hohenhaslach, Allmandklinge",9.0143767273,49.001291068200004
"5004916","Murrhardt, Murrhardt",9.5782729855,48.982566113
"5007086","Besigheim, Schwalbenhälde",9.134361486,48.9925358063
"5003505","Besigheim, Schäuber",9.1268058317,48.992841133899994
"5004899","Oppenweiler, Post",9.4576316484,48.9817145873
"5005786","Oppenweiler, Oppenweiler",9.4628219213,48.9815949425
"5004915","Murrhardt, Hörschbachschule",9.5638229162,48.9817205177
"5005710","Hohenhaslach, Steige",9.0188452297,48.9998786547
"5005312","Murrhardt, Kaiser-Ludwig-Straße",9.5713227958,48.9816925739
"5005730","Besigheim, Hartweg",9.1550437038,48.9906933689
"5007087","Besigheim, Chausseebergstraße",9.136599162400001,48.9913372263
"5005732","Besigheim, Wasserturm",9.160464986300001,48.9896698278
"5005294","Murrhardt, Stadthalle",9.5743310712,48.980742441800004
"5004950","Oppenweiler, Bühlfeld",9.456403484099999,48.980370645399994
"5005709","Hohenhaslach, Staffel",9.0264291006,48.998024771100006
"5005718","Besigheim, Friedhof",9.1573725226,48.9882533606
"5006656","Kleinaspach, Karlshof",9.3703069154,48.9798343113
"5004913","Murrhardt, Ärztehaus",9.5822965652,48.9784814183
"5004898","Strümpfelbach (Bk.), Katharinenhof",9.4436495864,48.9779296526
"5003591","Höpfigheim, Talstraße",9.246278310200001,48.9824953282
"5003592","Höpfigheim, Obere Seewiesen",9.2482570869,48.982059458100004
"5006687","Backnang, Staigacker",9.4476452802,48.9771678534
"5005604","Kleinbottwar, Kleinbottwar",9.2865686985,48.9804687845
"5006986","Kleinbottwar, Seestraße",9.2857743536,48.9801200683
"5004945","Murrhardt, Lisztstraße",9.6054273121,48.976491867300005
"5005573","Höpfigheim, Hauptstraße",9.2414211845,48.9810039453
"5004926","Fornsbach, Kindergarten",9.6536986145,48.97725329439999
"5006921","Fornsbach, Waldsee",9.6621144381,48.9773311462
"5004925","Fornsbach, Marktplatz",9.648352197200001,48.9768518707
"5006688","Backnang, Eichwald",9.4441702268,48.975032192200004
"5003597","Höpfigheim, Endwiesenstraße",9.2380834822,48.980093708300004
"5004927","Fornsbach, Alte Straße",9.647439962,48.976029722199996
"5005787","Fornsbach, Fornsbach",9.6428970548,48.9754257024
"5004922","Murrhardt, Alm",9.602631692500001,48.974618172599996
"5007452","Strümpfelbach (Bk.), Wilhelm-Föll-Straße",9.4424105304,48.973762085100006
"5005358","Großaspach, Hohrot",9.399877570700001,48.974043462699996
"5005983","Strümpfelbach (Bk.), Strümpfelbach (Bk.)",9.4390887304,48.9734690619
"5005693","Löchgau, Weißenhof Ost",9.1000749765,48.9845409245
"5004923","Murrhardt, Hausen (Murrhardt)",9.616867547,48.9726095467
"5005881","Gündelbach, Dreschhalle",8.938422905,48.99605155810001
"5005719","Besigheim, Husarenhof",9.1618960854,48.9801632251
"5006995","Steinheim (M), Kreuzwegäcker",9.2636871601,48.9754699271
"5006976","Gündelbach, Katharinenstraße",8.9391751408,48.995521423599996
"5004924","Murrhardt, Eisenschmiedmühle",9.6284088939,48.9714771306
"5005882","Gündelbach, Hildenstraße",8.9426882101,48.9945520649
"5003674","Großaspach, Forstboden",9.3895789453,48.9706167977
"5003504","Steinheim (M), Wellarium",9.2682653787,48.9733372189
"5006987","Steinheim (M), Horrenwinkel",9.280706065399999,48.9728309749
"5005568","Kleiningersheim, Blumenstraße",9.2002799828,48.975849533099996
"5003590","Gündelbach, Rathaus",8.9394099443,48.993444387
"5006988","Steinheim (M), Schulzentrum",9.272659752500001,48.9726255121
"5003673","Großaspach, Friedrich-List-Straße",9.3961052734,48.9685893024
"5005740","Gündelbach, Pfarrhaus",8.9386320862,48.9925987288
"5005547","Hohenhaslach, Langmantel",9.034496083899999,48.984381683
"5006718","Kleiningersheim, Schlossstraße",9.1966959022,48.974533884100005
"5031678","Schützingen, Große Gasse",8.9006667697,48.9953690066
"5005086","Fornsbach, Göckelhof Kreuzung",9.6415943585,48.9675918135
"5005357","Großaspach, Klöpferbach",9.3983031647,48.9667473348
"5006690","Murrhardt, Waltersberg",9.5645885134,48.966061486600005
"5005922","Steinheim (M), Kleinbottwarer Straße",9.2824485648,48.9693827459
"5005322","Backnang, Waldfriedhof",9.4452070612,48.9656943862
"5005599","Steinheim (M), Höpfigheimer Straße",9.2750814313,48.9684024647
"5005367","Rielingshausen, Sportplatz",9.337975805300001,48.96637366070001
"5006518","Großaspach, Marbacher Straße",9.3915157263,48.965044121300004
"5006689","Murrhardt, Schwammhof",9.568038356,48.9643809879
"5005692","Bietigheim, Waldhof",9.1003453031,48.9763309437
"5005602","Steinheim (M), Bahnhof",9.2761283949,48.9675547021
"5005933","Großingersheim, Friedhof",9.184498768700001,48.971065174900005
"5006912","Backnang, K.-Ferd.-Braun-Straße",9.424102085600001,48.963534979600006
"5007738","Backnang, Manfred-von-Ardenne-Allee",9.4270647729,48.9634431053
"5005603","Steinheim (M), Kelter",9.2796482856,48.9668807907
"5005366","Kirchberg (M), Frühmeßhof",9.3541881013,48.9645984574
"5005985","Kirchenkirnberg, Göckelhof",9.6426037157,48.9643040549
"5005646","Bietigheim, Kammgarnspinnerei",9.1441967925,48.9726064879
"5005601","Steinheim (M), Murrer Straße",9.2704698245,48.966758849
"5005364","Großaspach, Fürstenhof",9.380388284999999,48.9636426706
"5004949","Backnang, Gaildorfer Straße",9.431659959700001,48.9626256803
"5005295","Murrhardt, Hammerschmiede",9.6337297645,48.9634629696
"5005739","Horrheim, Maulbronner Straße",8.9863508756,48.982893601
"5005365","Großaspach, Zwingelhausen Abzweig",9.37351664,48.9633234602
"5005356","Großaspach, Lerchenstraße",9.4027644941,48.9627842875
"5005368","Rielingshausen, Egelsee",9.3299969825,48.9638610307
"5006933","Backnang, Lerchenäcker",9.4243258182,48.960935434999996
"5007450","Bietigheim, Kammgarnspinnerei B27",9.1427011646,48.970234448999996
"5005572","Pleidelsheim, SÜWAG",9.2051198224,48.9669208678
"5005600","Murr, Hardtlinde",9.262058532,48.964476332000004
"5003680","Backnang, Seehof",9.4385579789,48.959695172699995
"5005343","Steinbach, Dorfhalle",9.4787296841,48.959400364699995
"5005298","Murrhardt, Käsbach",9.594516139,48.9595535309
"5005296","Murrhardt, Klingen",9.621135155700001,48.959907700500004
"5005738","Horrheim, Marktplatz",8.9875402607,48.9794857424
"5005085","Kirchenkirnberg, Unterneustetten",9.657235353299999,48.9605437507
"5005987","Kirchenkirnberg, Marxenhof",9.642359707799999,48.960195999499994
"5005380","Oberbrüden, Rosenstraße",9.5102352465,48.958302992
"5007811","Horrheim, Pforzheimer Straße",8.9859420536,48.97906294049999
"5006937","Backnang, Fornsbacher Weg",9.4300374799,48.9581716584
"5005598","Murr, Ortsmitte",9.2595062887,48.9621531633
"5005369","Rielingshausen, Hauptstraße",9.3261199824,48.9599065599
"5006046","Steinbach, Lindenplatz",9.474162460199999,48.9572971099
"5005297","Murrhardt, Sauerhöfle",9.6141765643,48.958155556899996
"5003657","Backnang, Dresdener Ring",9.4239291143,48.95763678829999
"5005330","Backnang, Berliner Ring",9.430344952699999,48.957406179900005
"5005084","Kirchenkirnberg, Oberneustetten",9.660749233999999,48.958806154899996
"5005325","Backnang, Plattenwald",9.4515997559,48.95675831450001
"5005567","Großingersheim, Brühlstraße",9.1834364326,48.9644666896
"5005737","Horrheim, Feuerwehrhaus",8.990518824399999,48.976698473300004
"5006674","Kirchenkirnberg, Mettelbach",9.6398689278,48.9576380976
"5006938","Backnang, Beim Wasserturm",9.4209139815,48.9563260033
"5005331","Backnang, Seehofweg",9.4325284482,48.955680506499995
"5005340","Backnang, Weidenweg",9.4479832663,48.955459584100005
"5006918","Steinbach, Oberbrüdener Straße",9.4791265429,48.9552173745
"5005669","Kleinsachsenheim, Bietigheimer Straße",9.0751591967,48.969255492
"5003562","Kleinsachsenheim, Wilhelmstraße",9.0728373667,48.9692839694
"5003546","Kirchberg (M), Abzweig Obertorhöfe",9.3562191108,48.9564003846
"5005342","Backnang, Föhrenbühl",9.4551049355,48.9548112131
"5005299","Murrhardt, Vorderwestermurr",9.5826787635,48.9550369878
"5005332","Backnang, Plaisirschule",9.4362764572,48.9548840579
"5005571","Pleidelsheim, Wiegehalle",9.2043185844,48.9613651855
"5003658","Backnang, Stresemannstraße",9.4246425343,48.954819626200006
"5007441","Bietigheim, Grünwiesenstraße",9.1395712197,48.9645822789
"5003470","Pleidelsheim, Wiegehalle/Riedbachstraße",9.2046592421,48.9611847381
"5003731","Backnang, Tausschule",9.4432094443,48.9545068996
"5005379","Oberbrüden, Kirchplatz",9.5048271303,48.9541814393
"5005672","Kleinsachsenheim, Neuweiler Straße",9.0693811338,48.9687555855
"5007458","Oberbrüden, Kelterplatz",9.5025594864,48.954074455000004
"5003613","Backnang, Im Wiesengrund",9.430824577300001,48.954436986100006
"5005544","Großingersheim, Schule",9.1785802534,48.9622263133
"5003659","Backnang, Rietenauer Weg",9.4195058526,48.9544967469
"5003547","Kirchberg (M), Zwingelh. Großaspacher Straße",9.3675444206,48.9553127199
"5006844","Steinbach, Neue Straße",9.472642154899999,48.9539223154
"5005671","Kleinsachsenheim, Großsachsenheimer Straße",9.069476336100001,48.9684677814
"5003548","Kirchberg (M), Zwingelhausen Kirchberger Str.",9.3643077053,48.955224090799994
"5007457","Oberbrüden, Abzweig Mittelbrüden",9.500544871199999,48.9533278852
"5006666","Backnang, Hintere Tos",9.4508057484,48.9535062737
"5005597","Murr, Blattert",9.252179338,48.9580151028
"5006999","Murr, Bietigheimer Straße",9.2508820805,48.9580089461
"5005760","Kleinsachsenheim, Zeil",9.0824619542,48.966660748699994
"5005339","Backnang, Tausgymnasium",9.444589392500001,48.9530718336
"5005934","Großingersheim, Tiefengasse",9.1841184113,48.9605360582
"5007440","Bietigheim, Friedrich-Ebert-Straße",9.1418876156,48.9627360645
"5005333","Backnang, Potsdamer Ring",9.4418022233,48.9528667454
"5003582","Pleidelsheim, Am Friedhof",9.2003506275,48.9594388662
"5005338","Backnang, Sommerrain",9.453841213999999,48.9524782443
"5005570","Pleidelsheim, Hauptstraße",9.2039409054,48.95917178570001
"5005690","Bietigheim, Antonia-Visconti-Straße",9.119944029500001,48.963597343699995
"5005334","Backnang, Stettiner Ring",9.4454430532,48.9523401732
"5007599","Backnang, Murrbäder",9.4571424556,48.95215945899999
"5005355","Backnang, Rossbergstaffel",9.4172230476,48.9525537467
"5005986","Kirchenkirnberg, Schlossmühle",9.6374731872,48.9528765341
"5003675","Backnang, Gertrud-Bäumer-Weg",9.4509497875,48.9513116295
"5005660","Bietigheim, Löchgauer Straße",9.1230543749,48.9622452396
"5005566","Großingersheim, Bietigheimer Straße",9.1786643734,48.959024999200004
"5005661","Bietigheim, Hiller-/Löchgauer Straße",9.123558647000001,48.9618400543
"5007446","Bietigheim, Karl-Mai-Allee",9.1260298384,48.9616215582
"5007512","Backnang, Christophstraße",9.4327874748,48.9509047134
"5005083","Kirchenkirnberg, Tiefenmad",9.6739665323,48.952650909700004
"5005662","Bietigheim, Pfarrstraße",9.1260015934,48.9612529138
"5005668","Metterzimmern, Kleinsachsenheimer Straße",9.0967540135,48.9629628219
"5007735","Backnang, Bürgerheim",9.430312702,48.9504913545
"5005658","Bietigheim, Bolzstraße",9.1396956299,48.960247943599995
"5005569","Pleidelsheim, Beihinger Straße",9.2043272927,48.9568241634
"5005659","Bietigheim, Kronenzentrum",9.131270522000001,48.9604017553
"5005888","Großsachsenheim, Bannhalde",9.048836521,48.96563697650001
"5003565","Pleidelsheim, Hohenzollernstraße",9.198633042300001,48.956762201500005
"5005667","Metterzimmern, Kindergarten",9.1042481139,48.9614186085
"5005350","Backnang, Seminar",9.4214150956,48.9493642645
"5007405","Bietigheim, Schillerplatz",9.1334933256,48.959257198
"5005664","Bietigheim, Hillerplatz",9.1232390823,48.959628344900004
"5005353","Backnang, Unterschöntal",9.3955429164,48.9493211345
"5003605","Backnang, AOK/Waldhorn",9.4337658542,48.948796874
"5005337","Backnang, Eintracht",9.4442624611,48.9485500513
"5006631","Backnang, Rötlensweg",9.418174540699999,48.9487825938
"5003660","Backnang, Gartenstraße",9.438527195999999,48.9484101689
"5006936","Backnang, Richard-Wagner-Straße",9.4212172936,48.9485736802
"5005694","Bietigheim, Enzbrücke",9.1326586515,48.958619726900004
"5005351","Backnang, Lichtensteinstraße",9.4135168611,48.9485206529
"5005666","Bietigheim, Helenenburgweg",9.116574694799999,48.9594015121
"5005352","Backnang, Oberschöntal Abzweig",9.4025403111,48.9485235685
"5003661","Backnang, Biegel",9.430879447399999,48.9481332968
"5005081","Kirchenkirnberg, Gemeindehalle",9.6841322653,48.9501990914
"5005301","Sechselberg, Fautspach",9.5708954445,48.9478932502
"5005304","Fornsbach, Schlosshof",9.6044027289,48.9482619013
"5005650","Großsachsenheim, Metterbrücke",9.0572597312,48.9628635
"5005346","Backnang, Marienheim",9.446928442199999,48.9474426979
"5007531","Kirchenkirnberg, Kirche",9.6842756671,48.9497036698
"5005378","Oberbrüden, Mittelbrüden",9.4981875805,48.946962671600005
"5005560","Pleidelsheim, Robert-Bosch-Straße",9.1979127643,48.9541827112
"5003604","Backnang, Schöntaler Straße",9.419405637799999,48.9474382897
"5006719","Metterzimmern, Bietigheimer Straße",9.1087355011,48.958941619499996
"5003401","Bietigheim, Poststräßle",9.1466358312,48.9566784272
"5006964","Ensingen, Altes Schulhaus",8.9536151516,48.970233427100005
"5005648","Bietigheim, Auwiesenbrücke",9.132013285,48.9572716571
"5005674","Großsachsenheim, Kleinsachsenheimer Straße",9.0610818582,48.9615306919
"5006632","Backnang, Mittelschöntal",9.3959223739,48.9472426485
"5005303","Fornsbach, Hinterwestermurr",9.598230584,48.947017221100005
"5005656","Bietigheim, Krankenhaus",9.1380333132,48.9566441254
"5005639","Großsachsenheim, Sachsenheim",9.06312993,48.9612778005
"5007408","Bietigheim, Pleidelsheimer Straße",9.1541562252,48.9556075167
"5003390","Bietigheim, Haus an der Metter",9.1238340376,48.957262785400005
"5005336","Backnang, Feuerwehr",9.4345779096,48.9464108968
"5005370","Erdmannhausen, Schweißbrücke",9.2998235291,48.949223477800004
"5005324","Backnang, Rathaus",9.4305914558,48.946398891099996
"5005082","Kirchenkirnberg, Vögelesreute",9.6945970347,48.9487067373
"5005305","Fornsbach, Mettelberg",9.625615108,48.946889787100005
"5005329","Backnang, Aspacher Brücke",9.4286096057,48.9461275262
"5005799","Bietigheim, Schwarzwaldstraße",9.1252390982,48.956712743699995
"5005890","Großsachsenheim, Zimmerer Pfad",9.0765783892,48.9595970601
"5003668","Backnang, Hasenhälde",9.4397447599,48.9455909877
"5006961","Sersheim, Fessler Mühle",9.0180936243,48.9634699705
"5005891","Großsachsenheim, Holderbüschle",9.0833912341,48.9588729344
"5005335","Backnang, Gerberstraße",9.426680539600001,48.9456401203
"5033304","Gschwend, Eichenkirnberg Abzweig",9.7035877602,48.948256543300005
"5003514","Erdmannhausen, Erdmannhausen",9.299421571,48.9482174067
"5007407","Bietigheim, Steinheimer Straße",9.148459732200001,48.9547248005
"5003608","Backnang, Schillerplatz",9.4310325694,48.945309192399996
"5033302","Gschwend, Wildgarten",9.7369924388,48.948982960200006
"5005080","Kirchenkirnberg, Bohnreute",9.6758288602,48.9469929121
"5005920","Ensingen, Feuerwehrmagazin",8.9482081102,48.9686125818
"5003333","Bietigheim, Friedhof Sankt Peter",9.1188608696,48.956081086400005
"5007414","Bietigheim, Höpfigheimer Straße",9.156226350099999,48.953905214900004
"5005323","Backnang, Etzwiesenbrücke",9.422785065800001,48.94507898729999
"5005677","Großsachsenheim, Hauptstraße",9.066008674599999,48.9592889239
"5005345","Backnang, Burgplatz",9.434755106199999,48.9448096271
"5005649","Großsachsenheim, Ludwigsburger Straße",9.0705140919,48.958692757
"5005347","Sachsenweiler, Hof",9.4589408187,48.9443021699
"5004986","Sechselberg, Schule",9.5565754435,48.9443304761
"5001910","Bietigheim, Ellental",9.124033818700001,48.955239348999996
"5005349","Sachsenweiler, Evangelische Kirche",9.4636626642,48.9441393873
"5006935","Sachsenweiler, Schule",9.4644127043,48.9440554367
"5006859","Kirchberg (M), Danziger Straße",9.343761005100001,48.9457376252
"5007812","Ensingen, Herrenwiesen",8.954833628500001,48.966996759000004
"5003666","Backnang, Johanneskirche",9.4318954414,48.9440560526
"5005354","Backnang, Oberschöntal",9.403134428,48.944322163699994
"5005654","Ensingen, Kleinglattbacher Straße",8.9522522864,48.9670856535
"5005647","Bietigheim, Ellentalgymnasien",9.124946980899999,48.954572943799995
"5006929","Großsachsenheim, Lichtenstern Gymnasium",9.074008407900001,48.957746381
"5033306","Gschwend, Seehöfle",9.7164703032,48.9469272608
"5005371","Erdmannhausen, Huober",9.2823641332,48.9472174247
"5007513","Backnang, Maubacher Straße",9.4349914329,48.9437296777
"5005638","Großsachsenheim, Burgfeldschule",9.0633718146,48.9582113658
"5005348","Sachsenweiler, Am Dresselbach",9.4614422749,48.9431771507
"5003667","Backnang, Erbstetter Straße",9.4261566584,48.943438985099995
"5003551","Erdmannhausen, Bahnhofstraße",9.2981669865,48.94617045970001
"5005617","Bietigheim, DLW",9.1350887246,48.953383496200004
"5033305","Gschwend, Gläserhof",9.7115991892,48.9461571345
"5005651","Sersheim, Vaihinger Straße",9.0130128606,48.961447463800006
"5004985","Sechselberg, Feuerwehrgerätehaus",9.5476188148,48.9429616229
"5006884","Backnang, Obere Bahnhofstraße",9.4263600373,48.9432763739
"5007088","Großsachsenheim, Am Friedhof",9.0677404579,48.9574984858
"5007097","Kirchberg (M), Rappenberg",9.3372142115,48.944605991500005
"5003528","Kirchberg (M), Burgstaller Straße",9.3486103613,48.9442123686
"5006861","Kirchberg (M), Zwingelhäuser Straße",9.3460715902,48.94426498719999
"5007600","Backnang, Backnang",9.4261366445,48.942692711300005
"5007421","Sersheim, Sedanstraße",9.0126849558,48.9608360405
"5007585","Bietigheim, Realschule Im Aurain",9.1342130709,48.9527101155
"5003606","Backnang, Blumenstraße",9.4366597071,48.9424914419
"5003344","Bietigheim, Gustav-Rau-Straße",9.1478090031,48.9516953025
"5004984","Sechselberg, Naturfreundehaus",9.5432253533,48.941903360599994
"5003607","Backnang, Friedhof",9.4382790541,48.941909794500006
"5007096","Kirchberg (M), Feuerwehr",9.3496685299,48.943264986399996
"5005742","Großsachsenheim, Realschule",9.0628366341,48.9561344889
"5005782","Sersheim, Sersheim",9.0192117542,48.9591715691
"5003609","Backnang, Max-Born-Gymnasium",9.430220629,48.941382661
"5004971","Backnang, Gesundheitszentrum",9.4394610086,48.9412668488
"5003527","Kirchberg (M), Rathaus",9.3406966289,48.942797314299995
"5007417","Sersheim, Bahnhofstraße",9.0163304343,48.9590281545
"5005616","Bietigheim, Kreisberufsschule",9.1217178157,48.951788863000004
"5006858","Kirchberg (M), Pfarrgartenstraße",9.343915323400001,48.9423741077
"5007415","Sersheim, Industriestraße",9.0078778679,48.9593168316
"5033307","Gschwend, Waldhaus",9.7394667047,48.9445789154
"5005363","Marbach (N), Rielingshäuser Straße",9.2695268013,48.943876156099996
"5006873","Kirchberg (M), Schulstraße",9.3409753142,48.941627512100006
"5006856","Kirchberg (M), Römerweg",9.3332093171,48.941803114
"5005701","Bietigheim, Badepark",9.1215512107,48.9506560349
"5007503","Marbach (N), Marbach (N)",9.2646118244,48.9437706636
"5003526","Kirchberg (M), Marbacher Straße",9.3309422281,48.9416388019
"5006944","Großsachsenheim, Oberriexinger Straße",9.0614143951,48.9543818043
"5005382","Lippoldsweiler, Traube",9.5206858385,48.9390669886
"5005384","Lippoldsweiler, Am Brenner",9.5214891755,48.9388745197
"5005093","Kaisersbach, Abzweig Altersberg",9.6683870447,48.9407597636
"5001500","Benningen (N), Benningen (N)",9.244285335699999,48.9437796383
"5003662","Backnang, Carl-Kaelble-Straße",9.4293668108,48.938921998199994
"5003611","Backnang, Kreisberufsschulzentrum",9.4375822497,48.9387202306
"5003343","Bietigheim, Agentur für Arbeit",9.1471705186,48.948162225599994
"5003517","Erdmannhausen, Waage",9.2922029267,48.941806588300004
"5003342","Bietigheim, Freiberger Straße",9.1423654602,48.948357115
"5005377","Unterbrüden, Hügelstraße",9.4988203916,48.9378688629
"5005381","Unterbrüden, Friedhof",9.507009134899999,48.937770171100006
"5003532","Marbach (N), Erdmannhäuser Straße",9.2732834021,48.9418440699
"5003384","Bietigheim, Im Feldle",9.1486291389,48.9474319873
"5001400","Bietigheim, Bietigheim",9.1375997071,48.9479672703
"5003515","Erdmannhausen, Rathaus",9.296264451,48.9407351358
"5003530","Kirchberg (M), Schule",9.3417924199,48.939350079300006
"5004982","Lippoldsweiler, Badstraße",9.5229746001,48.937339118
"5006701","Sersheim, Danziger Weg",9.0189235367,48.9554399019
"5004976","Unterbrüden, Rathaus",9.5006159349,48.937249607300004
"5003533","Marbach (N), Krankenhaus",9.2599188239,48.941722162
"5007502","Kirchberg (M), Kirchberg (M)",9.3289060601,48.9392257524
"5004972","Backnang, Industriestraße",9.446112282,48.9370689228
"5003385","Bietigheim, Buch Buchzentrum",9.146278582099999,48.9466167224
"5003383","Bietigheim, Parkäcker",9.1528300042,48.946131612799995
"5007715","Kaisersbach, Weidenhof",9.620871578000001,48.93759054859999
"5007084","Großsachsenheim, Porsche",9.0441132638,48.9526992934
"5005078","Kaisersbach, Mönchhof",9.6639991101,48.9382403383
"5005372","Marbach (N), Güntterstraße",9.2623013642,48.9405208037
"5007714","Kaisersbach, Weidenbach",9.6264491293,48.937182689500005
"5007083","Großsachsenheim, Winkels",9.0492188832,48.951887913
"5003728","Backnang, Im Kusterfeld",9.4435640183,48.9359997049
"5005676","Bietigheim, Buch Sonderschule",9.1463436467,48.9455285943
"5005683","Bissingen (LB), Karlstraße",9.1288714715,48.9462509123
"5003398","Bietigheim, Industriestraße",9.1378797104,48.9455480576
"5003563","Erdmannhausen, Piemonteser Straße",9.2970974413,48.9384939482
"5005565","Freiberg (N), Mönchsbergstraße",9.1799853539,48.9429000975
"5003663","Backnang, Züricher Straße",9.4286790994,48.935129870999994
"5005383","Unterbrüden, Auenwaldhalle",9.4985558133,48.9346058517
"5007431","Bissingen (LB), Schillerschule",9.102511249400001,48.9469249178
"5005644","Bissingen (LB), Rathaus",9.1007639636,48.9470073953
"5003511","Backnang, Neuschöntal",9.4049575172,48.9351347879
"5005675","Bietigheim, Buch Gröninger Weg",9.1417805761,48.944320381699995
"5005077","Kaisersbach, Bruch",9.6420176692,48.9356942185
"5033308","Gschwend, Firma Kunz & Co",9.7428450317,48.93857736739999
"5003393","Bissingen (LB), Carl-Benz-Straße",9.130382933,48.944765508
"5005766","Kleinglattbach, Nordbahnhof",8.984801656,48.9547392454
"5003397","Bietigheim, Laiernstraße",9.1340817218,48.9444914855
"5003516","Erdmannhausen, Turnhalle",9.298127021800001,48.937187426899996
"5007430","Bissingen (LB), Hallenbad",9.1064957904,48.946067037300004
"5003537","Marbach (N), König-Wilhelm-Platz",9.258632430999999,48.9384609182
"5005678","Bietigheim, Buch Buchschule",9.1520843354,48.943354039700004
"5005686","Bissingen (LB), Grotzstraße",9.110043884000001,48.945452225400004
"5005385","Lippoldsweiler, Raiffeisenbank",9.522946967100001,48.9333916798
"5003529","Kirchberg (M), Neuhof",9.3271492414,48.9356698709
"5007712","Kaisersbach, Höfenäckerle",9.6081186571,48.9338728454
"5004973","Backnang, Ungeheuerhof Abzweig",9.4465426124,48.9332905486
"5007406","Bissingen (LB), Gerokstraße",9.0970206039,48.945616847400004
"5003522","Freiberg (N), Geisinger Dorfplatz",9.184550157399999,48.94067180770001
"5007534","Kaisersbach, Rotenmad",9.595747874499999,48.9334339072
"5005884","Kleinglattbach, Osterwiesenweg",8.977742881500001,48.9538209423
"5005645","Untermberg, Bissinger Straße",9.084352408,48.9459146195
"5031635","Illingen, Schützinger Straße",8.9157186817,48.9588371825
"5005684","Bissingen (LB), Panoramastraße",9.1243307164,48.942901862199996
"5003596","Marbach (N), Hölderlinstraße",9.2604911132,48.936289622400004
"5007579","Ensingen, Bertha-Benz-Straße",8.9568243628,48.954777271100006
"5005685","Bissingen (LB), Waldschule",9.1178741222,48.9430165794
"5005477","Bietigheim, Buch Berliner Straße",9.143533556,48.941530649499995
"5006940","Freiberg (N), Löchlesäcker",9.1758649528,48.9396423355
"5005388","Unterweissach, Heimatmuseum",9.481368357100001,48.9313788258
"5005643","Bissingen (LB), Ludwigsburger Straße",9.1024773524,48.943723757600004
"5006720","Bissingen (LB), Kelterstraße",9.0967444939,48.9440344695
"5004981","Lippoldsweiler, Hohnweiler Rathaus",9.5239483131,48.9312649763
"5005687","Bissingen (LB), Schubartstraße",9.105930156000001,48.9432889993
"5005679","Bietigheim, Buch Breslauer Straße",9.1477495481,48.940850895699995
"5003386","Bissingen (LB), Tammer Straße",9.1021765487,48.94349023110001
"5003545","Burgstall (M), Auf den Rüdern",9.365084098199999,48.932543472300004
"5003519","Freiberg (N), Beihinger Platz",9.2044273879,48.9379315608
"5003395","Bietigheim, Theo-Lorch-Werkstätten",9.1372947011,48.9413224654
"5005689","Bissingen (LB), Zahnklinik",9.1005382271,48.9433927659
"5006717","Bissingen (LB), Grotzstraße (Friedhof)",9.1082088882,48.942837266800005
"5007429","Bissingen (LB), Birkenweg",9.0923209988,48.943759362099996
"5005731","Kleinglattbach, Im See",8.968213227,48.9526407947
"5004975","Backnang, Ungeheuerhof",9.4565364706,48.9306616291
"5005681","Bietigheim, Buch Sucystraße",9.151978527199999,48.9399911283
"5005375","Unterweissach, Rathaus",9.479148456099999,48.9304439026
"5005691","Untermberg, Am Türmle",9.076991725,48.944355178500004
"5003353","Kleinglattbach, Ensinger Straße",8.966670437000001,48.9525504463
"5003639","Backnang, Kuchengrund/OVR",9.441359201200001,48.930531947999995
"5031021","Illingen, Illingen",8.9204608569,48.9564216535
"5005287","Unterweissach, Beethovenstraße",9.4675025071,48.9299522249
"5003549","Marbach (N), Stadionhalle",9.262732828199999,48.9343152489
"5003387","Bietigheim, Laiern-/R.-Bosch-Straße",9.1331287326,48.9403562217
"5003518","Erbstetten, Laubert",9.3954909567,48.9306805994
"5006845","Maubach, Tuxer Weg",9.4263033649,48.930228969299996
"5005653","Kleinglattbach, Grundschule",8.9703027873,48.951661202400004
"5003399","Tamm, Robert-Bosch-Straße",9.136103825100001,48.9401189392
"5007713","Kaisersbach, Spatzenhof",9.6153387086,48.9305433708
"5005680","Bietigheim, Buch Posener Straße",9.1505564257,48.939165725600006
"5003595","Marbach (N), Weimarstraße",9.261243931,48.9340848429
"5033301","Gschwend, Marktplatz",9.7433907954,48.9339698302
"5005030","Unterweissach, Lindenplatz",9.4777600586,48.929397585000004
"5005076","Kaisersbach, Hauptstraße",9.638965224,48.930738497700005
"5003352","Kleinglattbach, Weizenstraße",8.9715046003,48.951077013100004
"5007428","Bissingen (LB), Westendstraße",9.0908440854,48.9423397887
"5003523","Freiberg (N), Bilfinger Straße",9.187415791700001,48.93679156739999
"5004987","Sechselberg, Waldenweiler",9.5626315542,48.9293200946
"5005759","Kleinglattbach, Schillerstraße",8.978044775,48.950287105
"5003508","Burgstall (M), Murrbrücke",9.364618702,48.930485744
"5003382","Tamm, Porschestr.",9.1354191467,48.9393194501
"5007427","Bissingen (LB), Entenäcker",9.093068224600001,48.941843438
"5003388","Bissingen (LB), Dürr/Rosenstraße",9.1239956874,48.9399258344
"5031634","Illingen, Uhlandstraße",8.9249149722,48.9545902291
"5005996","Lippoldsweiler, Hohnweiler Forststraße",9.525901524,48.9288191958
"5007426","Bissingen (LB), Eichenweg",9.095988856,48.941535297600005
"5003550","Marbach (N), Schillerhöhe",9.2578280424,48.9333551915
"5003560","Freiberg (N), Menzelstraße",9.2036121311,48.9354961405
"5007539","Kaisersbach, Brandhöfle",9.6793092743,48.9308494314
"5003394","Bissingen (LB), Dürr/Marbacher Weg",9.12830736,48.9392466878
"5004979","Lippoldsweiler, Hohnweiler Rathausstraße",9.5219252422,48.9283427082
"5005374","Unterweissach, Welzheimer Straße",9.479251202,48.9283482988
"5003544","Marbach (N), Eichgraben",9.251794160400001,48.9330897962
"5006671","Kaisersbach, Heumaden",9.6335158386,48.929347818299995
"5007533","Kaisersbach, Fratzenwiesenhof",9.5921820075,48.9285155746
"5031707","Illingen, Waldstraße",8.9367967346,48.952412210999995
"5031637","Illingen, Schule",8.9153849739,48.954268958099995
"5031714","Illingen, Mühlacker Straße",8.9176928753,48.954036821600006
"5004980","Lippoldsweiler, Däfern",9.534376355200001,48.9275392765
"5007424","Bissingen (LB), Südstraße",9.103547499000001,48.9397392899
"5007425","Bissingen (LB), Lindenstraße",9.0984836014,48.9398696404
"5003559","Freiberg (N), Starenweg",9.1802581204,48.9352743507
"5003664","Maubach, Salzburger Straße",9.4269498817,48.927627838700005
"5003521","Freiberg (N), Stadtzentrum",9.1929758063,48.9344983701
"5007530","Kaisersbach, Eulenhof",9.6215723795,48.928082018
"5007560","Freiberg (N), Palazzo",9.1772005178,48.935198175100005
"5007422","Bissingen (LB), Neuer Friedhof",9.1121039151,48.93878707499999
"5007724","Kaisersbach, Fratzenklingenhof",9.5925664578,48.9275604251
"5003594","Marbach (N), Bad-Berka-Weg",9.2602475252,48.931452404
"5006509","Unterweissach, Täferhalde",9.4712820247,48.9269694066
"5007500","Burgstall (M), Burgstall (M)",9.3693243604,48.928267669700006
"5007725","Kaisersbach, Gallenhöfle",9.608694960300001,48.9273954201
"5003513","Erbstetten, Ortsmitte",9.391262632,48.9275028255
"5031631","Illingen, Hummelberg",8.9300800546,48.9518148915
"5003381","Tamm, Fritz-Lieken-Str.",9.1291074585,48.9372225638
"5005993","Lippoldsweiler, Abzweig Däfern",9.5309211237,48.9260085951
"5003509","Burgstall (M), Kelterweg",9.3726738492,48.9272407644
"5005071","Kaisersbach, Kreuzstraße",9.6214078656,48.9269229108
"5006943","Kaisersbach, Ziegelhütte",9.6504405863,48.927410122
"5007542","Kaisersbach, Forststraße",9.639573133699999,48.927048320000004
"5007601","Maubach, Maubach",9.4197586228,48.9260716502
"5005879","Vaihingen (E), Vaihingen (E)",8.957580879,48.94815037240001
"5005288","Unterweissach, Edeka",9.481498991499999,48.9251017411
"5004974","Heiningen (WN), Kreuzung",9.4546570734,48.9250939161
"5031712","Mühlacker, Betriebshof Engel",8.8686434259,48.955790067600006
"5003471","Erbstetten, Burgstaller Straße",9.3884083335,48.9254712664
"5031022","Mühlacker, Mühlacker Rösslesweg",8.8590980253,48.9561385361
"5003540","Marbach (N), Hörnle Hochhaus",9.253574433999999,48.9288955494
"5007711","Kaisersbach, Sägbühl",9.660418351,48.9254919797
"5007731","Kaisersbach, Wiesensteighof",9.5976308372,48.9242521143
"5031711","Mühlacker, Steuler",8.862323357600001,48.955090339
"5005994","Unterweissach, Aichholzhof",9.4851810574,48.92344971440001
"5005636","Unterriexingen, Hauptstraße",9.0574496657,48.938243038299994
"5001503","Freiberg (N), Freiberg (N)",9.1977762703,48.9300840685
"5006507","Maubach, Bludenzer Straße",9.4302426851,48.9233263199
"5005027","Kaisersbach, Voggenhof Abzweig",9.5906072993,48.9234430636
"5031702","Mühlacker, Waldäcker West",8.8787137828,48.9528606283
"5004978","Oberweissach, Weissachstraße",9.500171311,48.9228190954
"5003669","Maubach, Rathaus",9.426693333300001,48.923150688300005
"5005637","Unterriexingen, Glemsbrücke",9.0539414251,48.9379749868
"5007718","Kaisersbach, Menzles",9.6953489154,48.9252145536
"5003507","Burgstall (M), Rötesiedlung",9.375470546,48.9234909396
"5004990","Bruch (Weissach), Kelter",9.5267869855,48.922187907499996
"5031703","Mühlacker, Waldäcker Ost",8.8837411212,48.9516428534
"5003539","Marbach (N), Hörnle Dreibronnenstraße",9.2587341824,48.926483160699995
"5004988","Oberweissach, Ebniseestraße",9.502862782600001,48.921791260599996
"5003670","Heiningen (WN), Marbacher Straße",9.4440379091,48.9217363
"5007540","Kaisersbach, Ebersberg",9.675062544100001,48.923599682600006
"5003600","Affalterbach, Birkhau",9.3433611765,48.9233124087
"5003541","Marbach (N), Hörnle Wiesbadener Platz",9.2568485023,48.92600180909999
"5004989","Bruch (Weissach), Bruch (Weissach)",9.5174719302,48.9213219144
"5005995","Cottenweiler, Bildungszentrum",9.4881076003,48.92130620299999
"5004977","Cottenweiler, Stockäcker",9.4831953202,48.9212999366
"5003602","Affalterbach, Waage",9.3234277049,48.9237298181
"5003531","Marbach (N), Dampfkraftwerk",9.2393566446,48.92656107010001
"5031710","Mühlacker, Händle",8.8551871578,48.9533731396
"5005635","Unterriexingen, Industriegebiet",9.060804797500001,48.9360652082
"5003524","Freiberg (N), Stuttgarter Straße",9.192255834200001,48.9282950031
"5005028","Kaisersbach, Ebni",9.5995338477,48.9213557292
"5006667","Cottenweiler, Seegutstraße",9.48467473,48.9204844245
"5003599","Affalterbach, Marbacher Straße",9.3217165865,48.9228893495
"5003601","Affalterbach, Klingenstraße",9.327391693100001,48.922675523100004
"5031708","Mühlacker, Industriestraße West",8.8524578465,48.9528841218
"5003603","Affalterbach, Wolfsölden",9.353366833099999,48.9218703659
"5031023","Mühlacker, Mühlacker",8.8464491847,48.9532359948
"5005031","Heiningen (WN), Rathaus",9.4429715011,48.9199599545
"5003729","Althütte, Ebniseestraße",9.5754489665,48.92005777080001
"5006916","Kaisersbach, Täle",9.6656614946,48.9216131393
"5005029","Kaisersbach, Ebnisee",9.61080866,48.9194441136
"5005068","Kaisersbach, Grairich",9.6449008849,48.920067641399996
"5007733","Kaisersbach, Gebenweilersägmühle",9.6645939384,48.9203424054
"5003525","Freiberg (N), Harteneckstraße",9.2000501726,48.9253772455
"5005875","Vaihingen (E), Steinbeisstraße",8.955730216400001,48.9412167715
"5003617","Burgstall (M), Kirschenhardthof",9.375603627,48.919408060600006
"5005880","Vaihingen (E), Neue Bahnhofstraße",8.9639619692,48.9404372808
"5003452","Tamm, Hohenstange Stuttgarter Straße",9.1385274528,48.928102559399996
"5006836","Vaihingen (E), Stromberggymnasium",8.9656412289,48.9400151552
"5005039","Cottenweiler, Heutensbacher Straße",9.4840748735,48.9177173522
"5004995","Althütte, Rathaus",9.5699793154,48.917827916099995
"5007535","Kaisersbach, Kaltenbronnhof",9.6013773111,48.9180639642
"5031640","Mühlacker, Goldshaldenstraße",8.843726122,48.9507685165
"5031695","Mühlacker, Erich-Fuchslocher-Platz",8.841568952800001,48.950765585000006
"5003719","Althütte, Schule",9.567797063,48.9166966811
"5003616","Waldrems, Schozachstraße",9.4378809242,48.916715257599996
"5003615","Waldrems, Rathaus",9.433049156600001,48.9164997293
"5007732","Kaisersbach, Grasgehren",9.5993291601,48.916797741799996
"5003665","Waldrems, Isarstraße",9.4282460242,48.9164367592
"5005040","Cottenweiler, Lerchenstraße",9.4870186246,48.915969450300004
"5003446","Tamm, Hohenstange Tübinger Straße",9.1459030832,48.9256026047
"5007719","Kaisersbach, Menzlesmühle",9.697097052,48.918459817199995
"5031697","Mühlacker, Karlstraße",8.8405357525,48.9493703905
"5007727","Kaisersbach, Heppichgehren",9.602897777899999,48.9162935435
"5031633","Mühlacker, Schillerschule",8.8417928385,48.949039407200004
"5003460","Tamm, Hohenstange Frankfurter Straße",9.1496811946,48.9249772863
"5003610","Waldrems, Bottwarstraße",9.4315816451,48.9156150113
"5006885","Tamm, Allee/Brächterstraße",9.1340856402,48.925652977700004
"5006981","Vaihingen (E), Steinwerk",8.950258935699999,48.938633833
"5003453","Tamm, Hohenstange Ulmer Straße",9.1404698011,48.9248540379
"5003614","Waldrems, B14",9.4297220194,48.915136386700006
"5005873","Vaihingen (E), Krankenhaus",8.9583407648,48.9371712781
"5006886","Tamm, Allee/Alter Weg",9.1297992081,48.925064422000005
"5031621","Mühlacker, Goethestraße",8.8391742658,48.948190541500004
"5003449","Tamm, Realschule",9.1188289968,48.925561878
"5004991","Althütte, Lutzenberg",9.5495521326,48.9139256336
"5006849","Roßwag, Seemühle",8.9426027471,48.93748831760001
"5004996","Althütte, Ortsmitte",9.5729702064,48.9133079816
"5007734","Kaisersbach, Ebersbergmühle",9.6702124767,48.9150134379
"5031691","Mühlacker, Im Käppele",8.8373353456,48.9469110931
"5005733","Vaihingen (E), Stadthalle",8.9607034578,48.9354096394
"5006980","Vaihingen (E), Jugenddorf",8.9539333043,48.9357758461
"5007451","Neckarweihingen, Immanuel-Dornfeld.-Straße",9.2205173261,48.9187395852
"5005075","Welzheim, Gausmannsweiler",9.6217886543,48.9136393525
"5005041","Oberweissach, Wattenweiler",9.5015822219,48.9124719355
"5031627","Mühlhausen (E), Schlossstraße",8.891055274200001,48.9408774111
"5003448","Ludwigsburg, Breuningerland",9.1503923664,48.92097485279999
"5004997","Althütte, Strohhof",9.5772227677,48.911776061000005
"5006925","Vordersteinenberg, Hundsberg",9.7058541187,48.9144049598
"5003623","Leutenbach, Heidenhof",9.3805171565,48.9124319824
"5003461","Neckarweihingen, Schwarzwaldstraße",9.2213022761,48.917290340200005
"5003451","Tamm, Ludwigsburger Straße",9.1357801928,48.921532584800005
"5007720","Kaisersbach, Rotbachhöfle",9.6748539074,48.9131878996
"5006517","Oberriexingen, Roter Baum",9.0204962054,48.928795999100004
"5007541","Kaisersbach, Gehren",9.6673881025,48.9129526245
"5005640","Oberriexingen, Sachsenheimer Straße",9.030035032199999,48.928065497700004
"5031636","Mühlhausen (E), Rathaus",8.893324273,48.939440781500004
"5007404","Tamm, Tamm",9.1251650703,48.921823404200005
"5005811","Roßwag, Roßwag Sporthalle",8.9183894477,48.9370332381
"5006874","Allmersbach i. T., Wasenfeld",9.4663003485,48.910794750499996
"5006887","Tamm, Alter Weg",9.1285343655,48.9214150346
"5006514","Oberriexingen, Mörikestraße",9.0259955614,48.9280485154
"5003417","Eglosheim, Monrepos",9.1719308473,48.9189933488
"5005932","Vaihingen (E), Stadtbahnhof",8.962547863600001,48.9329464016
"5003467","Ludwigsburg, IKEA",9.155204746599999,48.9196016457
"5005487","Neckarweihingen, Hohenrainstraße",9.224203924500001,48.91628659129999
"5005631","Vaihingen (E), Grabenstr. (Stadtm.)",8.9583851757,48.9329449962
"5003428","Neckarweihingen, Wendeplatte",9.2188686387,48.9161440003
"5004993","Rudersberg, Mannenberg Im Hau",9.554363489,48.909811124
"5006934","Oberriexingen, Rathaus",9.0288057671,48.9262763827
"5006850","Roßwag, Mühlhäuser Straße",8.9124133534,48.935716036
"5005508","Eglosheim, Golfplatz",9.160110352,48.917598656799996
"5005280","Kaisersbach, Cronhütte",9.684415576600001,48.911045301200005
"5006513","Oberriexingen, Theodor-Heuss-Straße",9.020426909600001,48.926269222
"5005561","Poppenweiler, Burghaldenstraße",9.2622243697,48.912852139600005
"5005038","Heutensbach, Rathaus",9.484570547,48.9083184191
"5005067","Kaisersbach, Gebenweiler",9.6506620811,48.909811085
"5004992","Althütte, Kallenberg",9.5317225954,48.9076877816
"5007726","Kaisersbach, Hägerhof",9.5929785964,48.9082160525
"5004994","Rudersberg, Mannenberg",9.552674340800001,48.9075621928
"5005641","Oberriexingen, Mühlstraße",9.0264304012,48.9246044262
"5033303","Gschwend, Nardenheim Abzweig",9.7279615545,48.9110212144
"5005865","Vaihingen (E), Stuttgarter Straße",8.9605987628,48.9296096826
"5005486","Neckarweihingen, Hauptstraße 99",9.218637357899999,48.9131770264
"5005037","Allmersbach i. T., Schule",9.4748577358,48.906875156699996
"5005751","Vaihingen (E), Enzbrücke",8.9554126903,48.929742703
"5005032","Allmersbach i. T., Ortsmitte",9.4676549113,48.906841681399996
"5005527","Hoheneck, Uferstraße",9.2116792486,48.9131091136
"5005746","Vaihingen (E), Austraße",8.9621552849,48.9286210612
"5005557","Poppenweiler, Steinheimer Straße",9.2645040419,48.91052694179999
"5006818","Neckarweihingen, Peter-Hebel-Straße",9.2260941614,48.9118947153
"5006915","Vordersteinenberg, Hellershof Kreuzung",9.6908747901,48.9085428773
"5003472","Hoheneck, Beihinger Straße",9.2027524549,48.912019162
"5005757","Vaihingen (E), Salzäcker",8.9654452131,48.9271383748
"5005756","Enzweihingen, Talhöfe",9.008949837,48.923645038299995
"5006848","Neckarweihingen, Hermann-Hesse-Straße",9.2321033644,48.9103630706
"5005559","Poppenweiler, Zehntscheuer",9.2657085183,48.908707747499996
"5005526","Hoheneck, Ebelstraße",9.2099919795,48.9109181181
"5007721","Kaisersbach, Strohhof",9.6819235068,48.90636612270001
"5005528","Hoheneck, Heilbad",9.2145046848,48.9102533615
"5003426","Neckarweihingen, Lechtstraße",9.222592355,48.909797377500006
"5005584","Eglosheim, Bissinger Straße",9.1718111373,48.91196166
"5005074","Welzheim, Eckartsweiler",9.6248007973,48.9046577997
"5006648","Vordersteinenberg, Heinlesmühle",9.7061268957,48.9066609592
"5005545","Eglosheim, Straßenäcker",9.176830131700001,48.911558392799996
"5005525","Hoheneck, Ludwigsburger Straße",9.2049957351,48.910135821900006
"5005281","Vordersteinenberg, Hellershof",9.6915734977,48.9057960484
"5006847","Neckarweihingen, Otto-Hahn-Straße",9.2297906488,48.9087940837
"5001601","Nellmersbach, Nellmersbach",9.4154215383,48.9033641218
"5005535","Eglosheim, Besigheimer Straße",9.1722158189,48.910630213900006
"5007717","Kaisersbach, Silberhäusle",9.673765289,48.9042739613
"5005321","Nellmersbach, Bahnhofstraße",9.40974166,48.9026830794
"5005745","Vaihingen (E), Vaihinger Eck",8.970796653699999,48.9236688612
"5003425","Hoheneck, Bottwartalstraße",9.2030522689,48.908583624600006
"5007403","Eglosheim, Favoritepark",9.1806700943,48.9095741448
"5031630","Lomersheim, Im Letten",8.8546157305,48.933796593699995
"5003418","Ludwigsburg, Neckarbrücke",9.2198952757,48.9076084753
"5005066","Kaisersbach, Gmeinweiler",9.6510364258,48.9029299029
"5007445","Nellmersbach, Gewerbegebiet",9.415845085,48.9018069417
"5005558","Poppenweiler, Friedhof",9.266441546,48.9054688681
"5005283","Kaisersbach, Schadberg",9.679305299400001,48.9034141446
"5006820","Poppenweiler, Hochberger Straße",9.265008814,48.905382254799996
"5005507","Eglosheim, Rosenackerweg",9.1753196643,48.908764142699994
"5006765","Weiler zum Stein, In den Hofäckern",9.363702169,48.9020463897
"5003624","Weiler zum Stein, Friedhofstraße",9.3720747238,48.9017408795
"5007716","Kaisersbach, Killenhof",9.6667141706,48.9023007134
"5006985","Poppenweiler, Jahnstraße",9.270512961,48.9041465102
"5005513","Eglosheim, Falkenweg",9.1590461072,48.9090306054
"5003423","Eglosheim, Frankfurter Straße",9.1725486668,48.9082557824
"5005511","Eglosheim, Katharinenstraße",9.1722062061,48.907842656199996
"5005543","Ludwigsburg, Pädagogische Hochschule",9.179488407100001,48.9072110553
"5005512","Eglosheim, Tammer Straße",9.1650175275,48.90793413270001
"5006924","Kaisersbach, Birkhof",9.6931295949,48.9019290188
"5003456","Eglosheim, Hirschbergstraße",9.1571748308,48.9082778384
"5005320","Nellmersbach, Leutenbacher Straße",9.404644620100001,48.8998415814
"5006767","Weiler zum Stein, Rathaus",9.371382879,48.9004122674
"5006768","Weiler zum Stein, Gollenhofer Straße",9.3661852946,48.9002760478
"5007730","Kaisersbach, Kellerklinghöfle",9.592857305299999,48.8991255262
"5003407","Asperg, Hohenstaufenstraße",9.1516217192,48.907934606699996
"5006946","Asperg, Lehenbrücke",9.1471342878,48.908129277600004
"5005282","Kaisersbach, Oberer Schadberg",9.6719398013,48.9003819824
"5006769","Weiler zum Stein, Im Hummerholz",9.3642837157,48.8994907663
"5005065","Welzheim, Aichstrut",9.6509074896,48.8993067534
"5007400","Asperg, Asperg",9.1479774659,48.907255954099995
"5005744","Enzweihingen, Enzweihingen B10",8.9831067778,48.918248994699994
"5007722","Kaisersbach, Schillinghof",9.694920959400001,48.900290628899995
"5005548","Hochdorf (LB), Wendeplatte",9.299886861300001,48.900638700900004
"5007723","Kaisersbach, Voggenmühlhöfle",9.700555442099999,48.9003913923
"5003422","Eglosheim, Markgröninger Straße",9.1698524162,48.9056430768
"5005502","Ludwigsburg, Schlösslesfeld",9.2209670488,48.903191262
"5007729","Kaisersbach, Schmalenberg",9.6006703179,48.8978081557
"5004998","Rudersberg, Klaffenbach",9.5743161399,48.897438987499996
"5005484","Ludwigsburg, Untere Marbacher Straße",9.210833809399999,48.9035070265
"5005524","Ludwigsburg, Reichertshalde",9.1985050193,48.9039875711
"5003310","Markgröningen, Haus Frank",9.0773896045,48.91058045
"5005033","Rudersberg, Königsbronnhof",9.4981649677,48.8967324031
"5005501","Ludwigsburg, Kornbeckstraße",9.2169551452,48.902794251699994
"5005315","Weiler zum Stein, Stuttgarter Straße",9.375195890799999,48.8977921662
"5007448","Enzweihingen, Buolweg",8.9827524244,48.9170619803
"5031024","Enzberg, Enzberg",8.8002801237,48.9341292258
"5003406","Asperg, Wilhelmsplatz",9.1403221173,48.906312392
"5005483","Ludwigsburg, Obere Marbacher Straße",9.2027972266,48.9028830353
"5003409","Eglosheim, August-Bebel-Straße",9.1764218147,48.9041045108
"5005073","Welzheim, Seiboldsweiler",9.626775764500001,48.8967968399
"5005500","Ludwigsburg, Harteneckstraße",9.2118235879,48.902102427500004
"5005592","Hochdorf (LB), Sonne",9.296275680599999,48.8988855835
"5006953","Enzweihingen, Rieter Straße",8.982015932200001,48.9162705623
"5007432","Ludwigsburg, Mainzer Allee",9.2160096821,48.901797899099996
"5005479","Asperg, Volksbank",9.1356415401,48.90567057970001
"5006766","Asperg, Stadtmitte",9.133595701,48.9057718922
"5005506","Ludwigsburg, Schloss Favorite",9.1960983112,48.9024540383
"5003405","Asperg, Weinstraße",9.1300492772,48.905838909299995
"5005481","Asperg, Markgröninger Straße",9.1251255328,48.9060691861
"5003421","Eglosheim, Teinacher Straße",9.1735004293,48.903425552399995
"5005556","Hochdorf (LB), Poppenweiler Straße",9.293204231699999,48.898425855099994
"5003412","Ludwigsburg, Heilbronner Straße",9.1873146634,48.902567598599994
"5003329","Markgröningen, Klinik/Schule",9.106834898,48.9068789853
"5004999","Rudersberg, Grauhaldenhof",9.5588376851,48.8951141867
"5005124","Rudersberg, Abzweig Steinbach",9.5838248421,48.8953229743
"5003312","Markgröningen, Behindertenheim",9.112753927,48.906351774
"5006821","Hochdorf (LB), Wilhelmsplatz",9.2942786116,48.8979015656
"5006955","Enzweihingen, Klaiberstraße",8.9750170155,48.9157387577
"5007925","Markgröningen, Paulinenstraße",9.0850243297,48.9077514954
"5005862","Markgröningen, Heyd-Schule",9.0816551542,48.907888829899996
"5007924","Markgröningen, Dornierstraße",9.0924576252,48.907098301400005
"5005505","Ludwigsburg, Bietigheimer Straße",9.1905159047,48.9014832765
"5003581","Markgröningen, Festplatz",9.0779988569,48.907621614499995
"5005552","Hochdorf (LB), Hochberger Straße",9.2914644833,48.8971174136
"5007416","Enzweihingen, Beerhaldenstraße",8.9801065014,48.9145167887
"5007536","Welzheim, Aichstruter Sägmühle",9.6485438462,48.894778992
"5005482","Asperg, Schäferstraße",9.129021012399999,48.903825822900004
"5007554","Ludwigsburg, Neckarstraße/Auf dem Wasen",9.2107760905,48.8995235953
"5005504","Ludwigsburg, Talstraße",9.1864480401,48.900608712
"5005752","Aurich, Abzweig",8.9429673966,48.9167166638
"5003402","Asperg, Möglinger Straße",9.130615690900001,48.9033564265
"5005094","Vordersteinenberg, Hintersteinenberg Nord",9.7235754492,48.8963824517
"5005499","Ludwigsburg, Neuer Friedhof",9.2060290624,48.8993703388
"5003307","Markgröningen, Pappelweg",9.0738911299,48.906473343200005
"5006888","Markgröningen, Mitte/Helenenstraße",9.0832340126,48.905774533599995
"5006978","Markgröningen, Steinbeisstraße",9.0988642664,48.904737005899996
"5006948","Asperg, Stuttgarter Straße",9.1368737913,48.902368989500005
"5003317","Markgröningen, Mitte/Volksbank",9.0839701728,48.9055132233
"5003306","Markgröningen, Abzweig Bahnhof",9.0902301818,48.904923972199995
"5003311","Markgröningen, Helene-Lange-Schule",9.0787868873,48.9056248135
"5006668","Vordersteinenberg, Hintersteinenberg Süd",9.723768053099999,48.8955539523
"5005025","Rudersberg, Oberndorf Brunnenplatz",9.5424244007,48.891964428399994
"5003313","Markgröningen, Mitte/Wernerstraße",9.0859200439,48.9050801529
"5007454","Oßweil, Gegen Eich",9.228129040899999,48.897422281
"5007567","Rudersberg, Oberndorf",9.543812773700001,48.8917240839
"5006947","Asperg, Berliner Straße",9.1334349761,48.9017795536
"5003325","Markgröningen, Rebsteige",9.0704796455,48.90559426350001
"5006669","Vordersteinenberg, Greuthöfle",9.7160509916,48.894747902800006
"5003415","Ludwigsburg, Rundsporthalle",9.178886821299999,48.8992089547
"5005498","Ludwigsburg, Klinikum",9.2042222943,48.897799929099996
"5007549","Bittenfeld, Schillerschule",9.31282822,48.8937072384
"5005454","Ludwigsburg, Residenzschloss",9.1939130471,48.898195449599996
"5005542","Ludwigsburg, Weimarstraße",9.1728445668,48.8991552548
"5005753","Aurich, Ortsmitte",8.945985164,48.914371149000004
"5006965","Aurich, Reitsteige",8.9413187675,48.914764548
"5005503","Ludwigsburg, Abelstraße",9.1831794495,48.898213053700005
"5007551","Bittenfeld, Friedhof",9.318578394900001,48.8929451138
"5006644","Vordersteinenberg, Hüttenbühl",9.6996908309,48.893175851600006
"5006883","Oßweil, Neckarweihinger Straße",9.2249727894,48.8961426143
"5007550","Bittenfeld, Beethovenstraße",9.3158908158,48.8927816691
"5003622","Hertmannsweiler, Schmiede",9.422351295799999,48.890498032900005
"5005125","Rudersberg, Abzweig Schmalenberg",9.5959200461,48.8905940632
"5005271","Öschelbronn (WN), Stöckenhof",9.4558666603,48.890109464
"5007419","Ludwigsburg, Bildungszentrum West",9.1762366229,48.898008096000005
"5006882","Oßweil, Walter-Flex-Straße",9.2187660269,48.895821876499994
"5003404","Asperg, Saarstraße",9.1475855202,48.899262413799995
"5005514","Ludwigsburg, Neckarstraße",9.2084291669,48.8960119272
"5005314","Leutenbach, Hauptstraße",9.3874393637,48.8902251361
"5004894","Ludwigsburg, Schorndorfer Tor",9.2030558619,48.8960395257
"5003400","Asperg, Gymnasium",9.1330198906,48.899567959200006
"5007435","Ludwigsburg, Alter Oßweiler Weg",9.2084144043,48.8957421882
"5005319","Leutenbach, Schule",9.3918698651,48.89004828270001
"5005885","Aurich, Nußdorfer Straße",8.9446362967,48.9127249517
"5005497","Ludwigsburg, Blühendes Barock",9.1969462734,48.896113098200004
"5005121","Rudersberg, Schulzentrum",9.5326151609,48.889006792900005
"5005541","Ludwigsburg, Weststadt-Kirche",9.1724965774,48.8971235437
"5003419","Ludwigsburg, Rathaus",9.191573053099999,48.8961671381
"5004893","Ludwigsburg, Comburgstraße",9.2166478971,48.894845737
"5007563","Ludwigsburg, Gartenstraße",9.1862406007,48.8961848927
"5003314","Markgröningen, Münchinger Straße",9.0841004709,48.901898274299995
"5005628","Enzweihingen, Pulverdingen Ort",9.0226691883,48.90609939469999
"5005034","Rudersberg, Seelach",9.510095935599999,48.8884432957
"5005156","Bittenfeld, Altes Rathaus",9.3172979483,48.8910243181
"5005540","Ludwigsburg, Osterholzallee",9.1657997315,48.897007510099996
"5003408","Ludwigsburg, Arsenalplatz",9.1883120635,48.8957768695
"5003416","Ludwigsburg, Uhlandstraße",9.1837985578,48.8959640185
"5005478","Asperg, Neckarstraße",9.1494900183,48.8976053892
"5005860","Markgröningen, Bildungszentrum",9.0829676571,48.9014674762
"5005157","Bittenfeld, Klingenstraße",9.3221494857,48.890534254900004
"5006826","Neckargröningen, Rainwiesen",9.2615580084,48.892396434000005
"5007434","Ludwigsburg, Fasanenstraße",9.197937115,48.89491543530001
"5006914","Vordersteinenberg, Hüttenbühlsee Abzw.",9.7038170579,48.890812727
"5007456","Hertmannsweiler, Heckenweg",9.4195369576,48.888251272
"5005515","Oßweil, Friesenstraße",9.2222199151,48.8935312375
"5005801","Rudersberg, Nord",9.5346318938,48.8875946593
"5005072","Welzheim, Eierhof",9.630724645999999,48.8887182228
"5007455","Hertmannsweiler, Wiesentalstraße",9.422069090599999,48.8877564385
"5006663","Hertmannsweiler, Stöckenhofer Straße",9.423064405,48.8877437939
"5005869","Hertmannsweiler, Karl-Georg-Pfleiderer-Straße",9.4235398976,48.8875352247
"5003316","Markgröningen, Stuttgarter Weg",9.0875890988,48.9001152084
"5005516","Oßweil, Wettemarkt",9.2295525827,48.8925996325
"5007728","Kaisersbach, Klingenmühlhöfle",9.5977794884,48.8875720225
"5006833","Oßweil, Hirschstraße",9.2315428445,48.892433783799994
"5005155","Bittenfeld, Am Zipfelbach",9.312747765000001,48.8895620491
"5005510","Ludwigsburg, Martin-Luther-Straße",9.1803436275,48.8947195765
"5005313","Leutenbach, Rathaus",9.3924629113,48.887420533800004
"5006797","Vordersteinenberg, Wahlenheim",9.712855895,48.8896870754
"5007516","Ludwigsburg, Forum am Schlosspark",9.194263185,48.8935369039
"5005537","Ludwigsburg, Albrechtstraße",9.1756103077,48.8944301636
"5005270","Öschelbronn (WN), Öschelbronn (WN)",9.4612871249,48.886401064400005
"5005284","Welzheim, Klingenmühle",9.5989163413,48.8868557288
"5007433","Ludwigsburg, Berliner Platz",9.207065632599999,48.892786193000006
"5003411","Ludwigsburg, Gänsfußallee",9.171859748400001,48.8943728879
"5004892","Oßweil, Westfalenstraße",9.2284981737,48.8916485589
"5003315","Markgröningen, Sträßle",9.0935056426,48.898581862
"5005554","Bittenfeld, Hochdorfer Straße",9.311787297199999,48.888611480499996
"5005539","Ludwigsburg, Jenischstraße",9.1661455948,48.8943812914
"5005549","Neckargröningen, Schießtal",9.2687859061,48.8898979282
"5006664","Hertmannsweiler, Baacher Weg",9.425286954299999,48.8861259977
"5005035","Rudersberg, Backnanger Straße",9.5280794804,48.8856196145
"5005553","Bittenfeld, Hochberger Straße",9.311676586299999,48.8883510061
"5005064","Welzheim, Schafhof",9.6450075437,48.887047509700004
"5005532","Ludwigsburg, Osterholz",9.1616179104,48.894387748999996
"5005629","Hochberg, Neckarzentrum",9.2719062212,48.889449978799995
"5005538","Ludwigsburg, Hoferstraße",9.1772837136,48.8932945783
"5006922","Vordersteinenberg, Abzweig Wahlenheim",9.7128108428,48.8884374262
"5006977","Markgröningen, Im langen Feld",9.0966678338,48.897545137499996
"5005999","Oßweil, Mauserstraße",9.2345335425,48.890413471799995
"5005119","Rudersberg, Marktplatz",9.5300905641,48.884962934600004
"5005474","Ludwigsburg, Grönerstraße",9.1734781265,48.8930755807
"5005624","Hochberg, Rotweg",9.2827961213,48.888470557199994
"5005550","Hochberg, Adlerplatz",9.2761009487,48.8884958083
"5007562","Ludwigsburg, Rockfabrik",9.1688002481,48.892992625000005
"5007401","Ludwigsburg, Bahnhof (Arena)",9.1835936847,48.8921696406
"5005475","Ludwigsburg, Mann + Hummel",9.1663863399,48.8929601767
"5005531","Ludwigsburg, Oststraße",9.204467662799999,48.8911003089
"5007402","Ludwigsburg, Ludwigsburg",9.1854607839,48.8918519165
"5005634","Asperg, Im Waldeck",9.152573372400001,48.893482913
"5005747","Riet, Rieter Tal",8.9780640677,48.90503869009999
"5005530","Ludwigsburg, Landratsamt",9.200089999900001,48.8910360726
"5005476","Ludwigsburg, Mörikestraße",9.1559814498,48.8930736874
"5005529","Ludwigsburg, Agentur für Arbeit",9.195753011199999,48.8909086556
"5005533","Ludwigsburg, Danziger Straße",9.2089099506,48.8903100026
"5007568","Rudersberg, Edelmannshof",9.5717764657,48.88404417380001
"5005466","Ludwigsburg, Stadtwerke",9.1769367318,48.891586595999996
"5005551","Hochberg, Alexandrinenplatz",9.279857717199999,48.887281776900004
"5003462","Ludwigsburg, Karlsplatz",9.192711556,48.8907879032
"5006911","Leutenbach, Winnender Straße",9.3925747331,48.8842908574
"5006824","Hochberg, Waldallee",9.288294086599999,48.8865595582
"5005536","Oßweil, Fellbacher Straße",9.226985146699999,48.8887920346
"5006800","Oßweil, Mehrzweckhalle",9.2309523175,48.8885863086
"5007556","Oßweil, Mühlhäuser Straße",9.2257435778,48.888641610700006
"5003410","Ludwigsburg, Lotter",9.153387278699999,48.8920700548
"5007436","Ludwigsburg, Friedrichstraße",9.2074334823,48.8894134555
"5006000","Oßweil, Ostfriedhof",9.2396219483,48.8879750894
"5003431","Möglingen, Wartbergstraße",9.134256588400001,48.89284036430001
"5005534","Ludwigsburg, Brünner Straße",9.2135266046,48.888871762899996
"5005154","Bittenfeld, Rienzhofer Mühle",9.3153236039,48.885004960399996
"5005272","Bürg, Bürg",9.440799374100001,48.8824887531
"5005036","Rudersberg, Rudersberg",9.530811594200001,48.882234961
"5003436","Möglingen, Im Bornrain",9.1294423754,48.892737987000004
"5005743","Enzweihingen, Pulverdingen B10",9.022761640399999,48.8995890429
"5007594","Rudersberg, Feuerwehr",9.5298962296,48.8820593307
"5005472","Ludwigsburg, Ruhrstraße",9.182329995,48.8896808134
"5003466","Ludwigsburg, Rotbäumlesfeld",9.2082884064,48.8884137756
"5007529","Rudersberg, Bronnwiesenweg",9.5275354172,48.8818633456
"5005488","Ludwigsburg, Friedenstraße 5",9.1779661505,48.8896247076
"5003437","Möglingen, Löscher Ost",9.1401439717,48.891448531799995
"5005127","Welzheim, Laufenmühle",9.6056904412,48.8821083626
"5003438","Möglingen, Löscher West",9.1349759806,48.891589606
"5007520","Welzheim, Obermühle/Fuchshof",9.6419650697,48.882658288200005
"5005491","Ludwigsburg, Steinbeisstraße",9.165706395600001,48.8894272262
"5005517","Ludwigsburg, Hohenzollernplatz",9.1905466552,48.8880848595
"5005520","Ludwigsburg, Tennisplatz",9.196926044900001,48.8875165925
"5005123","Welzheim, Oberer Wasen",9.6331717183,48.881654857
"5005521","Ludwigsburg, Robert-Franck-Allee",9.202992437899999,48.8871373618
"5005492","Pflugfelden, Robert-Bosch-Straße",9.1626778878,48.8890448893
"5006822","Hochberg, Lindenstraße",9.2793203434,48.883839064600004
"5006823","Hochberg, Hochberger Wald",9.2876629747,48.883512776399996
"5003433","Möglingen, Daimlerstraße",9.1423755899,48.8897552539
"5003420","Ludwigsburg, Solitudeallee",9.1872163366,48.8872450644
"5005489","Ludwigsburg, Friedenstraße 52",9.1737872821,48.887859639
"5005490","Ludwigsburg, Daimlerstraße",9.1691781602,48.887803571300005
"5006659","Bürg, Schulerhof",9.4419598284,48.879570818699996
"5007521","Welzheim, Eberhardsweiler",9.6494805579,48.8807727455
"5003636","Winnenden, Seestraße",9.398075781900001,48.879919728800004
"5005095","Vordersteinenberg, Vordersteinenberg",9.7287383689,48.882843492999996
"5031025","Niefern, Niefern",8.7687355145,48.9199527866
"5005130","Welzheim, Steinbeise",9.6397128303,48.8803238315
"5003432","Möglingen, Bahnhofstraße",9.1259703383,48.8894956678
"5007605","Winnenden, Winnenden",9.3922107425,48.879598152
"5003634","Winnenden, Backnanger Straße",9.4010836494,48.8792708414
"5003440","Möglingen, Markgröninger Straße",9.1214423867,48.8892127982
"5005274","Baach (Winnenden), Ortsmitte",9.432556744200001,48.878473501
"5003444","Möglingen, Sonnenbrunnen",9.1348854131,48.8883525218
"5005522","Ludwigsburg, Aldinger Straße",9.2081222436,48.8845294434
"5003439","Möglingen, Ludwigsburger Straße",9.1310399478,48.888312014499995
"5005861","Möglingen, Furtbachschule",9.135920523700001,48.8879016911
"5003435","Möglingen, Hirschgartenweg",9.1292124248,48.8881971875
"5003434","Möglingen, Tennisplätze",9.139614483199999,48.887411680199996
"5005519","Ludwigsburg, Karlshöhe",9.1959051287,48.884487963199994
"5005518","Ludwigsburg, Wüstenrot",9.1906964972,48.884469744600004
"5003465","Möglingen, Brühlstraße",9.1263478751,48.8878047197
"5005428","Schwaikheim, Winnender Straße",9.3535529751,48.8787072365
"5003429","Pflugfelden, Möglinger Straße",9.1600496644,48.88590131
"5007527","Welzheim, Lettenstich",9.598312310999999,48.8773810145
"5005217","Höfen, Baacher Straße",9.426586663,48.8770300365
"5005128","Welzheim, Amselweg",9.6253088529,48.8776153097
"5005455","Ludwigsburg, Köhlstraße",9.1833873043,48.8842388481
"5003454","Ludwigsburg, Kreisberufsschule",9.1722903446,48.884777567
"5005496","Pflugfelden, Dorfstraße",9.1609748659,48.8852795553
"5003637","Winnenden, Kronenplatz",9.395913589,48.8771755587
"5005457","Pflugfelden, Karlsruher Allee",9.154239582,48.8854416629
"5005063","Welzheim, Gottlob-Bauknecht-Platz",9.6348096314,48.8774914084
"5005273","Höfen, Gemeindehalle",9.4269647729,48.8766059995
"5003464","Ludwigsburg, Am Sonnenberg",9.2117811565,48.882427577600005
"5006686","Welzheim, Gschwender Straße",9.6358705492,48.8772967193
"5003442","Möglingen, Hindenburgstraße",9.1286491797,48.8865792242
"5006643","Pfahlbronn, Burgholz",9.676670615299999,48.8780174773
"5005129","Welzheim, Friedhof",9.632961785300001,48.8769080854
"5003443","Möglingen, Schwieberdinger Straße",9.1217763803,48.8863799015
"5005495","Pflugfelden, Herrschaftsweg",9.1578629592,48.884303723
"5005494","Pflugfelden, Sportplatz",9.1544002029,48.884470289
"5005419","Schwaikheim, Rathaus",9.3498044931,48.8768572955
"5005275","Höfen, Ortsmitte",9.424007530399999,48.8751242137
"5007438","Ludwigsburg, Theo-Lorch-Werkstätten",9.2184536827,48.8805177384
"5005209","Winnenden, Wallstraße",9.3983378881,48.875161926699995
"5005118","Schlechtbach, Ortsmitte",9.5289011407,48.8743305588
"5005626","Schwieberdingen, Hardthof",9.0332170124,48.890989922900005
"5005748","Riet, Dorfplatz",8.9717674705,48.8953527783
"5005120","Schlechtbach, Keltersiedlung",9.5231707851,48.8738711481
"5005061","Welzheim, Kirchplatz",9.6348313593,48.874901509800004
"5005523","Grünbühl, Netzestraße",9.2166089158,48.879550068499995
"5005210","Winnenden, Ringstraße",9.3971302792,48.8741589668
"5006675","Schlechtbach, Lindentaler Straße",9.527036648300001,48.8733319715
"5005117","Schlechtbach, Lindental",9.5046658076,48.8732613153
"5004891","Neckargröningen, Bank",9.2709949897,48.877303644
"5005207","Winnenden, Friedhof",9.4032342968,48.8737600767
"5005792","Schlechtbach, Schlechtbach",9.5264743621,48.873010821399994
"5004890","Neckargröningen, Lamm",9.27465991,48.876872319099995
"5005060","Welzheim, Busbahnhof",9.6308545114,48.8741230431
"5003696","Winnenden, Brückenstraße",9.390243397399999,48.873822825800005
"5005269","Rettersburg, Rettersburg",9.471330508400001,48.8727191563
"5005131","Welzheim, Schulzentrum",9.6379955998,48.873948830500005
"5006825","Neckarrems, Friedhof",9.2805863198,48.8761746108
"5007582","Welzheim, Brunnenstraße",9.633698,48.873675806099996
"5005205","Höfen, Seehaldenweg",9.4220786655,48.872712384900005
"5005286","Winnenden, Stöckachschule",9.4031324352,48.872960123199995
"5007526","Welzheim, Obersteinenberg",9.5666815249,48.8723883925
"5006926","Schwieberdingen, Bosch Tor IV",9.092348035199999,48.8847797864
"5005456","Kornwestheim, Max-Eyth-Straße",9.1790223679,48.8799384605
"5005585","Pattonville, Nord",9.2232409788,48.8778648328
"5006962","Nußdorf, Vaihinger Straße",8.9415319773,48.8955393961
"5005991","Winnenden, Wolfsklingenweg",9.4076385326,48.872215885699994
"5005306","Winnenden, Kelter",9.4003724048,48.872160451499994
"5007818","Welzheim, Naturfreundehaus",9.6459142663,48.872762681400005
"5007525","Welzheim, Langenberg",9.5875281642,48.871537587400006
"5003349","Schwieberdingen, Laiblinger Weg",9.0839207364,48.8842827073
"5005308","Winnenden, Lange Weiden",9.3862759743,48.8719927946
"5005625","Nußdorf, Martinstraße",8.9393509474,48.89466603900001
"5004889","Neckargröningen, Wasenstraße",9.2731476497,48.8745559241
"5006830","Hochdorf (E), Keltenmuseum",9.003788752,48.888908607299996
"5006952","Hochdorf (E), Am Pfaffenwald",8.9974479216,48.8891874319
"5003574","Pattonville, Berufsschule",9.2227814384,48.875698598300005
"5005418","Schwaikheim, Cafe Rommel",9.3531337778,48.871460778700005
"5003573","Neckargröningen, Remseck",9.270907019400001,48.873644014
"5004896","Winnenden, Hermann-Schwab-Halle",9.399906208300001,48.8701118384
"5006831","Hochdorf (E), Rieter Straße",8.9963979738,48.8884680337
"5006827","Neckargröningen, Haus der Jugend",9.2667199268,48.8732581385
"5003324","Schwieberdingen, Siemensstraße",9.0798683439,48.8825231341
"5007528","Welzheim, Vorderhundsberg",9.6064678978,48.869739884599994
"5004885","Neckarrems, Neckarhalde",9.2793536556,48.8727066087
"5005058","Welzheim, Bethel",9.6313218794,48.8701009275
"5005622","Hochdorf (E), Schule",8.9958525451,48.8882791821
"5005307","Winnenden, Bildungszentrum II",9.3993436934,48.86965518590001
"5006853","Neckarrems, Steige",9.2829368357,48.8723561488
"5005026","Vordersteinenberg, Abzweig Greuthof",9.7263320935,48.8720409404
"5004887","Neckarrems, Rathaus",9.2737474752,48.872063650099996
"5005992","Birkmannsweiler, Burkhardshof",9.4212381272,48.8683991804
"5006983","Winnenden, Rems-Murr-Klinikum",9.3920581905,48.8688169693
"5005468","Kornwestheim, Maybachstraße",9.176758189,48.8758055451
"5006949","Hochdorf (E), Gartenstraße",8.9993706341,48.8868944386
"5006951","Hochdorf (E), Pulverdinger Straße",9.0021931961,48.8866785922
"5006973","Aldingen, Haus der Feuerwehr",9.2655401542,48.8718580791
"5005453","Neckarrems, Remstalstraße",9.2734854817,48.8715157469
"5003323","Schwieberdingen, Robert-Bosch-Straße",9.0815834081,48.8807684442
"5005621","Hochdorf (E), Rathaus",9.001484127700001,48.886220005
"5005590","Aldingen, Lise-Meitner-Gymnasium",9.2604125986,48.8714561569
"5006854","Neckarrems, Traubenstraße",9.279614788,48.8706467525
"5006982","Pattonville, Mitte",9.2230682044,48.8727485921
"5006852","Neckarrems, Haus am Remsufer",9.2750890331,48.870612700500004
"5006645","Pfahlbronn, Mannholz",9.6784433063,48.8689787798
"5001603","Schwaikheim, Schwaikheim",9.354747548899999,48.8683534915
"5005218","Winnenden, Hermann-Löns-Weg",9.402035404600001,48.8670560485
"5006660","Schelmenholz, BBW",9.3866342948,48.8671987216
"5005591","Neckarrems, Kelterschule",9.2789429596,48.8699469886
"5031026","Eutingen (PF), Eutingen (Baden)",8.7434635311,48.9096843725
"5005203","Birkmannsweiler, Talaue",9.4258686097,48.8663319116
"5004883","Neckarrems, Dorfstraße",9.2754250606,48.869748641799994
"5005152","Hohenacker, Bittenfelder Straße",9.317181526199999,48.868346241800005
"5003587","Aldingen, Kindergarten Leonberger Straße",9.254640936800001,48.870363032200004
"5003586","Aldingen, Kindergarten Albstraße",9.249569622400001,48.8702572471
"5005876","Hochdorf (E), Eberdinger Straße",8.9927712696,48.8847990653
"5005267","Asperglen, Necklinsberg",9.4980122867,48.8649184744
"5005096","Vordersteinenberg, Kapf Mohnwiesenweg",9.7277675647,48.868569838199996
"5006950","Hochdorf (E), Th.-Heuss-Straße",9.005110842799999,48.883477261399996
"5005204","Birkmannsweiler, Ortsmitte",9.4306152366,48.8651362713
"5003328","Schwieberdingen, Ludwigsburger Straße",9.0791519201,48.8778476829
"5006979","Pfahlbronn, Tannhof",9.6455649604,48.8657506446
"5005586","Aldingen, Kohlenweg",9.2394100698,48.869343648699996
"5003642","Winnenden, Wunnebad",9.3956794651,48.8647940339
"5006662","Schelmenholz, Theodor-Heuss-Platz",9.3838210045,48.8647082877
"5007524","Welzheim, Taubenhof",9.5925118541,48.86415636540001
"5007596","Hohenacker, Hegnacher Straße",9.315967816,48.866092526500005
"5005438","Kornwestheim, Villeneuvestraße",9.181376261,48.871113400800006
"5003322","Schwieberdingen, Glemstal",9.0702348604,48.8771611044
"5005589","Aldingen, Haus der Bürger",9.256670096,48.8673371308
"5007522","Welzheim, Ölmühle",9.6721452835,48.864870242900004
"5003327","Schwieberdingen, Mitte",9.0753734809,48.8764924097
"5003585","Aldingen, Oßweiler Weg",9.2491195149,48.867461637000005
"5003572","Aldingen, Brückenstraße",9.2582629705,48.8669738762
"5003332","Schwieberdingen, Brauerei",9.0769815792,48.8761226583
"5005097","Vordersteinenberg, Kapf Kapfhofweg",9.7281001783,48.8661308166
"5006807","Kornwestheim, Pflugfelder Straße",9.1837979999,48.86985064140001
"5003576","Pattonville, Realschule Remseck",9.2237826818,48.8679093828
"5005309","Schelmenholz, Forchenwaldstraße",9.3862870476,48.862820657099995
"5006782","Pfahlbronn, Buchengehren Sägmühle",9.714060025,48.8650946555
"5005151","Hohenacker, Ortsmitte",9.3167340235,48.8643998774
"5005791","Schlechtbach, Bahnhof",9.535702006700001,48.8614221837
"5005448","Kornwestheim, Kirchtalstraße",9.1914116607,48.8682645741
"5005266","Asperglen, Necklinsberg Kreuzung",9.496076904599999,48.860790378599994
"5005268","Oppelsbohm, Ortsmitte",9.468573628,48.860707742900004
"5005113","Schlechtbach, Ortsmitte",9.5385560842,48.8606804976
"5004525","Schwieberdingen, Hermann-Essig-Straße",9.083207959500001,48.873870247
"5005459","Kornwestheim, Ludwigsburger Straße",9.1860808023,48.8679136384
"5006810","Kornwestheim, Freizeitpark",9.212069013699999,48.8667086376
"5005968","Birkmannsweiler, Industriegebiet",9.4364501648,48.8606001827
"5005446","Kornwestheim, Aldinger Straße",9.2015883378,48.866934312699996
"5006851","Kornwestheim, Elsaweg",9.1808054816,48.8678231436
"5006828","Aldingen, Kaltenthalstraße",9.2524451332,48.8647207453
"5005587","Aldingen, Kernersteg",9.248247792099999,48.8648377871
"5031626","Wiernsheim, Mühlstraße",8.8529918212,48.891693244500004
"5006661","Schelmenholz, Eschenweg",9.3874705979,48.8607754358
"5005114","Asperglen, Krehwinkel",9.5104570806,48.859648462500004
"5005447","Kornwestheim, Friedhof",9.1934507046,48.8668313954
"5006834","Kornwestheim, Talstraße",9.2057829362,48.8660816111
"5005150","Hohenacker, Bildäckerstraße",9.3214742608,48.8618329342
"5006835","Kornwestheim, Lenzhalde",9.1948395033,48.866451375900006
"5005623","Eberdingen, Hochdorfer Straße",8.9653128787,48.8809635371
"5004888","Aldingen, Schlosshof",9.2524268799,48.8638035764
"5005122","Steinenberg, Turnhalle",9.5464579105,48.859177533
"5007548","Hohenacker, Kriegsberg",9.3257372044,48.8613893196
"5005115","Asperglen, Asperglen",9.5273631294,48.85901476630001
"5006958","Schwieberdingen, Stettiner Straße",9.0851539951,48.8719085121
"5006468","Eberdingen, Nußdorfer Straße",8.9628180257,48.8807289751
"5005276","Oppelsbohm, Lannerstraße",9.4654343539,48.8587331804
"5004886","Aldingen, Neckarschule",9.253201108,48.863280324600005
"5031676","Wiernsheim, Bürgersaal",8.848576501,48.8906804281
"5006957","Schwieberdingen, Breslauer Straße",9.0785018619,48.8719492359
"5005445","Kornwestheim, Enzstraße",9.2079721521,48.8648277508
"5005112","Steinenberg, Michelauer Straße",9.5484527885,48.8584037055
"5005657","Aldingen, Berliner Straße",9.2450078752,48.862857447699994
"5003430","Möglingen, Aussiedlerhöfe",9.1390008606,48.8678093944
"5006832","Aldingen, Mühlweg",9.252747127600001,48.862445044
"5006997","Welzheim, Reizenwiesen",9.6129291425,48.8586001931
"5005429","Hegnach, Katholische Kirche",9.2990761556,48.8608412288
"5005055","Welzheim, Bausche",9.602187905800001,48.858405065
"5003571","Aldingen, Mühle",9.2538499245,48.862217809499995
"5031677","Wiernsheim, Friedhof",8.8527676729,48.889067238299994
"5003348","Schwieberdingen, Hülbe",9.0834202758,48.870408087
"5005277","Bretzenacker, Nachbarschaftsschule",9.4611955933,48.8572035629
"5005132","Welzheim, Breitenf. Reinhold-Maier-Platz",9.6258292072,48.858144157299996
"5001602","Neustadt, Neustadt-Hohenacker",9.3247425498,48.859323911
"5006893","Bretzenacker, Bretzenacker",9.4542164693,48.8570064973
"5005451","Kornwestheim, Mühlhäuser Straße",9.1942840732,48.8638175901
"5006829","Aldingen, Goethestraße",9.247808855599999,48.861520594800005
"5005795","Schwieberdingen, Schwieberdingen",9.0711661589,48.870605201000004
"5005450","Kornwestheim, Im Wiesengrund",9.1905091746,48.8639318153
"5005098","Alfdorf, Strübelmühle",9.725573571,48.860130888
"5005460","Kornwestheim, An der Wette",9.1856970934,48.8636879076
"5005053","Welzheim, Steinbruck",9.578834107699999,48.856438580900004
"5005444","Kornwestheim, Neckarstraße",9.208085172099999,48.862507547899995
"5006647","Pfahlbronn, Rienharz",9.6611695029,48.857344245300006
"5005056","Welzheim, Breitenfürst Schulhaus",9.6216793818,48.8564850666
"5005054","Welzheim, Eselshalden",9.5914597345,48.8558438923
"5005087","Welzheim, Breitenfürst Lorcher Straße",9.6256538473,48.856103854400004
"5005202","Reichenbach (WN), Lehnenberg Kreuzung",9.440217543300001,48.855064582000004
"5004879","Hegnach, Rathaus",9.298267347800001,48.8577589839
"5005111","Steinenberg, Schorndorfer Straße",9.5470902331,48.854678381700005
"5005588","Aldingen, Cannstatter Straße",9.2496650348,48.85932247189999
"5005443","Kornwestheim, Goerdelerstraße",9.2020827873,48.8611154648
"5031688","Wiernsheim, Lindenhalle",8.8501306879,48.8862313117
"5007460","Hemmingen, Hälde",9.0464383953,48.8697816615
"5001402","Kornwestheim, Kornwestheim",9.1798165845,48.8619437715
"5005461","Kornwestheim, Johannesstraße",9.1845306146,48.861522656
"5005310","Hanweiler, Burgunderweg",9.3896861105,48.8547521287
"5005439","Kornwestheim, Zeppelinstraße",9.188754141,48.8611561078
"5005810","Kornwestheim, Im Weizen",9.1932369625,48.8608968762
"5005278","Ödernhardt, Ödernhardt",9.4660560468,48.8537759169
"5005264","Vorderweißbuch, Vorderweißbuch",9.5005277072,48.8533884503
"5005440","Kornwestheim, Hallenbad",9.1977594144,48.8603316657
"5005546","Hegnach, Aldinger Straße",9.2939803901,48.856421177200005
"5005422","Breuningsweiler, Haselsteinstraße",9.4101590145,48.8537278287
"5004882","Hegnach, Hauptstraße",9.2950290992,48.8563195782
"5005311","Hanweiler, Backhäusle",9.3860239393,48.8534336101
"5007547","Neustadt, Pfarräcker",9.3224644894,48.854753254399995
"5003570","Aldingen, Hornbach",9.2490678951,48.8570846952
"5005462","Kornwestheim, Rathaus",9.1855871794,48.859776459299994
"5004528","Hemmingen, Schauchert",9.025419168200001,48.86926677
"5006642","Pfahlbronn, Brend",9.6930617492,48.8546299352
"5006802","Kornwestheim, Richthofenallee",9.1914725919,48.8592542477
"5005423","Breuningsweiler, Buocher Straße",9.4146460116,48.8525427595
"5003579","Hemmingen, Schwieberdinger Straße",9.040739176499999,48.8679943922
"5005441","Kornwestheim, Realschule",9.2011194311,48.85878816220001
"5007523","Welzheim, Birkachhof",9.63755413,48.853170050799996
"5004527","Hemmingen, Hemmingen",9.0320292325,48.8678982709
"5031687","Wiernsheim, Krügele",8.851107815,48.8831842149
"5005442","Kornwestheim, Stauffenbergstraße",9.205204114599999,48.857881718899996
"5005265","Vorderweißbuch, Birkenweißbuch",9.4882697423,48.8512019955
"5006676","Neustadt, Schneider",9.3267053419,48.8531047009
"5006784","Pfahlbronn, Höldis",9.6821935358,48.853076190900005
"5006803","Kornwestheim, Thomashaus",9.2038252317,48.8572726987
"5005290","Reichenbach (WN), Lehnenberg",9.4376189388,48.850857106
"5005463","Kornwestheim, Rechbergstraße",9.1910034729,48.857744330399996
"5004558","Hemmingen, Bahnhofstraße",9.0305702708,48.867089373899994
"5003424","Kornwestheim, Ernst-Sigle-Gymnasium",9.188440869099999,48.8575866997
"5004878","Hegnach, Neckarstraße",9.2972826896,48.8525819884
"5004570","Hemmingen, Eisgasse",9.0319324905,48.86584807
"5006930","Hemmingen, Münchinger Straße",9.0387470111,48.8652974202
"5005464","Kornwestheim, Ludwig-Herr-Straße",9.192224571399999,48.856339503600005
"5004526","Hemmingen, Rathaus",9.0346581045,48.8653257195
"5005088","Welzheim, Neuhof",9.639123459,48.850139932000005
"5006942","Pfahlbronn, Abzweig Eisenbachsee",9.6746094678,48.850477109500005
"5007597","Neustadt, Torstraße",9.3245497207,48.850592964
"5005467","Kornwestheim, Lindenstraße",9.1789913185,48.856028161199994
"5006932","Hemmingen, Schlosshaldenstraße",9.047754231699999,48.863171828199995
"5005485","Kornwestheim, Karl-Joos-Straße",9.1813729443,48.8551611708
"5005452","Kornwestheim, Bolzstraße",9.1743139713,48.8551091495
"5004535","Hemmingen, Schöckinger Straße",9.0305543971,48.863474501099994
"5005465","Kornwestheim, Hornbergstraße",9.1908929883,48.8537879226
"5005291","Reichenbach (WN), Spechtshof",9.441343787200001,48.8467783722
"5005263","Vorderweißbuch, Streich",9.5019709828,48.846467088599994
"5003413","Kornwestheim, Heubergstraße",9.1868871838,48.853902412900005
"5005201","Ödernhardt, Erlenhof",9.4538881902,48.8463339435
"5031013","Pforzheim, Pforzheim Hauptbahnhof",8.7034347721,48.8941220242
"5003414","Kornwestheim, Hauffstraße",9.182389687899999,48.853711808700005
"5031500","Pforzheim, ZOB/Hbf",8.7048967742,48.8936491804
"5005089","Pfahlbronn, Haghof",9.6459938223,48.847197082200005
"5005148","Neustadt, Rathaus",9.321669601,48.8476785607
"5005279","Steinach (WN), Kottweil",9.4701691073,48.8448208536
"5006809","Kornwestheim, Max-Planck-Straße",9.1729021014,48.8527103507
"5005187","Buoch, Freizeitzentrum",9.4227446379,48.845004745800004
"5005417","Korb, Mansler Straße",9.3572192218,48.8460450252
"5031522","Pforzheim, Bahnhofstraße",8.7007976308,48.8926854652
"5005469","Kornwestheim, Stadion",9.1816060575,48.8518066912
"5006466","Stuttgart, Pflugfelder Straße",9.1522053053,48.8532432031
"5007545","Neustadt, Alte Schule",9.3223835589,48.846408651599994
"5005471","Kornwestheim, Albstraße",9.186237633,48.8514575733
"5005262","Buhlbronn, Buhlbronn",9.518102130399999,48.8437788803
"5002459","Stuttgart, Asperger Straße",9.1554873187,48.8526093491
"5005790","Miedelsbach, Miedelsbach-Steinenberg",9.539108321699999,48.843592535
"5006641","Alfdorf, Döllenstraße",9.7130721751,48.846423686899996
"5005632","Münchingen, Münchingen",9.0951965955,48.855606676
"5031503","Pforzheim, Leopoldplatz",8.698157615500001,48.8917524017
"5005470","Kornwestheim, Eichenweg",9.182746079600001,48.850554960000004
"5004524","Hemmingen, Sägmühle",9.0524236333,48.85805319160001
"5004877","Waiblingen, Hegnacher Höhe",9.3026510936,48.8457518506
"5005293","Steinach (WN), Buchenstraße",9.4534212458,48.842909716600005
"5006512","Miedelsbach, Tannbachbrücke",9.5407461719,48.842604693400006
"5000105","Stuttgart, Kornwestheimer Straße",9.1668325008,48.8509478495
"5004518","Münchingen, Müllerheim",9.1189708463,48.8534712945
"5005147","Neustadt, Alte Waiblinger Straße",9.3185999948,48.8449084855
"5004523","Münchingen, Stiegelplatz",9.0914201403,48.8546565732
"5031504","Pforzheim, Jahnhalle",8.6949591481,48.8907278824
"5005110","Miedelsbach, Rathaus",9.541674217299999,48.8414942765
"5000100","Stuttgart, Stammheim",9.1561200911,48.8501536044
"5000114","Stuttgart, Sonatenweg",9.164757292700001,48.849709912499996
"5004519","Münchingen, Kornwestheimer Straße",9.1112560742,48.8525078733
"5005415","Korb, Seeplatz",9.3607091168,48.8425361415
"5005090","Pfahlbronn, Petershalde",9.6600518047,48.8428280354
"5004522","Münchingen, Ziegeleistraße",9.0947564125,48.8534399086
"5006967","Pfahlbronn, Pflegeheim",9.674399064100001,48.8429337658
"5004521","Münchingen, Danziger Straße",9.0961727556,48.853016092800004
"5006968","Pfahlbronn, Haubenwasen",9.674013642,48.842639274300005
"5005292","Reichenbach (WN), Reichenbach (WN)",9.443334261799999,48.840754876
"5006640","Alfdorf, Schule",9.7252467717,48.8441265674
"5005099","Alfdorf, Marktplatz",9.7190037347,48.8439049259
"5031513","Pforzheim, Turnplatz",8.6949407748,48.8892621036
"5004520","Münchingen, Sportzentrum",9.1033248283,48.85214661209999
"5006272","Stuttgart, Bachhalde",9.2272941694,48.8457545745
"5005109","Miedelsbach, Im Hiller",9.5429125205,48.8401036276
"5005100","Alfdorf, Untere Bühlstraße",9.7126673921,48.8428652191
"5005416","Korb, Steinreinach",9.3656015079,48.8408751161
"5003568","Münchingen, Flattichschule",9.0908431619,48.852103232800005
"5002372","Oeffingen, Rathaus",9.2643822623,48.8436070776
"5004560","Münchingen, Friedhof",9.0891534061,48.8520416147
"5005414","Korb, Alfred-Leikam-Garten",9.3524117326,48.8405116032
"5007940","Münchingen, Lingwiesen",9.1134171566,48.8500868398
"5005091","Pfahlbronn, Welzheimer Straße",9.6814426394,48.8409319785
"5003692","Waiblingen, Boskopweg",9.3275927595,48.84085469360001
"5002480","Stuttgart, Aalstraße",9.221688712799999,48.844443653999996
"5002373","Oeffingen, Klosterplatz",9.2633284162,48.8426922824
"5002638","Münchingen, Kirche",9.1305546519,48.84872877310001
"5006288","Stuttgart, Mönchfeld",9.218132772,48.8444324704
"5002371","Oeffingen, Daimlerstraße",9.258233837399999,48.8428207319
"5005103","Alfdorf, Untere Schlossstraße",9.7249558528,48.8419072854
"5005627","Münchingen, Kallenberg Lackfabrik",9.126153977100001,48.848841602
"5003644","Waiblingen, Wendelkönig",9.3249751811,48.8405563773
"5031715","Mönsheim, Nord",8.8550055895,48.869574943500005
"5002381","Oeffingen, Gemeindezentrum",9.2648934521,48.8423739594
"5005104","Alfdorf, Bonholz Abzweig",9.7403783909,48.8419530698
"5000102","Stuttgart, Korntaler Straße",9.1570631265,48.8467262668
"5006287","Stuttgart, Freiberg",9.2114965566,48.8441301397
"5031505","Pforzheim, Schmuckmuseum",8.698586905,48.8861154058
"5006271","Stuttgart, Mühlhausen Schloss",9.2298844928,48.843150658400006
"5005105","Pfahlbronn, Adelstetten",9.7585176014,48.8423656065
"5003721","Waiblingen, Birkenweg",9.3187730792,48.8399892259
"5007607","Münchingen, Rührberg",9.0957714118,48.8497972017
"5003684","Waiblingen, Alfred-Diebold-Weg",9.336193140099999,48.839445078
"5003645","Waiblingen, Galgenberg",9.3240158891,48.8396778379
"5002481","Stuttgart, Forellenweg",9.2151443664,48.8433320515
"5005158","Waiblingen, Stauferstraße",9.332010137200001,48.839322337300004
"5002370","Oeffingen, Dieselstraße",9.2561570415,48.8416473869
"5005092","Pfahlbronn, Lorcher Straße",9.6831927131,48.839392911299996
"5003720","Waiblingen, Alte Winnender Steige",9.321820517499999,48.8393512836
"5003693","Waiblingen, Im Baumstückle",9.326464850599999,48.839194325200005
"5031686","Mönsheim, Gödelmann",8.8519695246,48.8683391659
"5002482","Stuttgart, Steinbuttstraße",9.2180702115,48.842580180599995
"5005163","Waiblingen, Galgenbergbrücke",9.3293767462,48.8386824594
"5005843","Heimerdingen, Gewerbegebiet Nord",8.9941378483,48.8555384392
"5003689","Korb, Bühl",9.3676612807,48.837523420900006
"5003685","Waiblingen, Bajastraße",9.3399439281,48.838103200599996
"5005765","Plüderhausen, Walkersbach",9.6374068765,48.8372903997
"5006269","Stuttgart, Zazenhausen Steigle",9.199870002099999,48.842811092800005
"5006270","Stuttgart, Mühlhausen (Stgt.)",9.2308437741,48.84141322719999
"5003722","Waiblingen, Steingrube",9.3173453367,48.838257660100005
"5003688","Waiblingen, Finkenberg",9.3409073097,48.8375428286
"5004516","Münchingen, Kallenberg Rasthaus",9.1320586667,48.84555278370001
"5003725","Waiblingen, Buchenweg",9.323321772,48.837665516799994
"5002374","Oeffingen, Alemannenstraße",9.2626580418,48.8395555088
"5005406","Waiblingen, Mikrozentrum",9.331465903,48.837363586100004
"5003683","Korb, Daimlerstraße",9.3666867603,48.836519392
"5005405","Waiblingen, Salierstraße",9.3375394113,48.8370671717
"5005146","Waiblingen, Neustädter Straße",9.3151749968,48.8375622261
"5033311","Mutlangen, Pfersbach Rössle",9.773535454100001,48.8400086543
"5000288","Stuttgart, Suttnerstraße",9.2067974159,48.841108291800005
"5007090","Waiblingen, Wasserstubenweg",9.3059778766,48.837218365700004
"5007092","Waiblingen, Schellingstraße",9.3115752063,48.8369965228
"5007091","Waiblingen, Mendelssohnstraße",9.3076254139,48.837097073100004
"5005407","Waiblingen, Fuchsgrube",9.3263524047,48.8365688944
"5000097","Stuttgart, Marco-Polo-Weg",9.153305873,48.8433142817
"5004400","Stuttgart, Zazenhausen Krone",9.1981731357,48.8409076684
"5000271","Stuttgart, Auwiesen",9.2252363656,48.839580930000004
"5031648","Mönsheim, Eichenweg",8.8517055947,48.8653893757
"5000103","Stuttgart, Heutingsheimer Straße",9.1593522346,48.842496747700004
"5003723","Waiblingen, Junge Weinberge",9.319673967,48.8359941489
"5003724","Waiblingen, Oberer Rosberg",9.3202049219,48.8359477113
"5005413","Waiblingen, Nachtigallenweg",9.3352517571,48.8351584992
"5003654","Waiblingen, Galerie",9.317246877399999,48.8356141971
"5005186","Buoch, Gemeindehaus",9.4229329302,48.833403981400004
"5002375","Schmiden, Dorfwiesen",9.261814426299999,48.8371385071
"5031612","Mönsheim, Marktplatz",8.862887582399999,48.8633439351
"5005101","Pfahlbronn, Brech",9.686512732199999,48.835119785
"5003648","Waiblingen, Hausgärten",9.3128312693,48.8352665943
"5000096","Stuttgart, Niebuhrweg",9.147511832,48.841982022
"5003651","Waiblingen, Talstraße",9.3054495064,48.83545728
"5006989","Stuttgart, Zazenhausen Viadukt",9.1945852408,48.8396189103
"5003690","Waiblingen, Schippertsäcker",9.310215626,48.8352197219
"5004529","Heimerdingen, Hemminger Straße",8.9833188809,48.8525610027
"5004530","Heimerdingen, Weissacher Straße",8.9806889789,48.8526325438
"5005108","Haubersbronn, Miedelsbacher Straße",9.549352350700001,48.832285729
"5005409","Waiblingen, Winnender Straße",9.3233128415,48.8341675386
"5004536","Heimerdingen, Heimerdingen",8.9860716484,48.851599183
"5003007","Schöckingen, Silcherstraße",9.028283291400001,48.848440056499996
"5004876","Waiblingen, Ludwigsburger Straße",9.3069959119,48.834401065899996
"5005412","Waiblingen, Im Sämann",9.3310195842,48.833722990199995
"5004531","Heimerdingen, Wiesenäckerstraße",8.9788088683,48.85184989729999
"5003334","Heimerdingen, Gewerbegebiet Süd",8.9896826767,48.8509341174
"5006639","Stuttgart, Neuwirtshaus Gaststätte",9.1402886891,48.841010917
"5003656","Waiblingen, Meisenweg",9.329546157100001,48.833367527
"5004401","Stuttgart, Zuffenhausen Reibedanz",9.1884234448,48.8384781654
"5031616","Mönsheim, Friedhof",8.867118081500001,48.8612806513
"5005797","Waiblingen, Feuerwehrgerätehaus",9.3213201292,48.8335436592
"5003652","Waiblingen, Fröbelstraße",9.3103841328,48.8338344537
"5003646","Waiblingen, Schwanen",9.3194264197,48.8334859853
"5000289","Stuttgart, Himmelsleiter",9.2020561599,48.837636711
"5005386","Waiblingen, Marktgasse",9.3156120545,48.8334155797
"5005260","Schornbach, Post",9.5119067957,48.8307767117
"5000095","Stuttgart, Neuwirtshauskreuzung",9.1419900223,48.840460296799996
"5005803","Haubersbronn, Mitte",9.5490225628,48.830776588899994
"5031506","Pforzheim, Kupferhammer",8.6991752689,48.878941146600006
"5006521","Schmiden, Hohenackerstraße",9.2699470439,48.8346468296
"5005145","Waiblingen, Bürgerzentrum (Remsbrücke)",9.3209218426,48.8330322095
"5033410","Mutlangen, Abzweig Pfersbach",9.79045643,48.8366205592
"5005408","Waiblingen, Korber Steige",9.3254703079,48.8328845502
"5031613","Mönsheim, Wimsheimer Straße",8.8583132323,48.861539980399996
"5000272","Stuttgart, Hofen",9.2221024231,48.8363498042
"5003647","Waiblingen, Schmidener Straße",9.3135121314,48.833052636000005
"5031713","Mönsheim, Schule",8.8550556388,48.8616528472
"5002377","Schmiden, Rathaus",9.2647403395,48.8340204777
"5006276","Stuttgart, Schneideräckerstraße",9.238741132200001,48.8348237436
"5000104","Stuttgart, Wimpfener Straße",9.161041516,48.8382500379
"5005387","Waiblingen, Hochwachtturm",9.3142148354,48.832160481500004
"5002376","Schmiden, Bühnerstraße",9.2631726358,48.833781283200004
"5003650","Waiblingen, Berufsschulzentrum",9.3035100481,48.8323510774
"5003627","Waiblingen, Bürgerzentrum (Hallenbad)",9.3224940477,48.83181385339999
"5001200","Stuttgart, Zazenhausen",9.1993534598,48.8362566184
"5005410","Waiblingen, Rathaus",9.3165011025,48.8318394852
"5005102","Pfahlbronn, Brech Kaiserlinde",9.6953494979,48.8319014637
"5003006","Schöckingen, Schloss",9.0293853526,48.845796050699995
"5005199","Hößlinswart, Hößlinswart",9.4614007894,48.8291467507
"5003698","Waiblingen, Christofstraße",9.3077429706,48.8318362651
"5005160","Waiblingen, Am Kätzenbach",9.3277464284,48.831016683499996
"5005261","Schornbach, Rohr",9.5150296343,48.8284877257
"5006633","Kleinheppach, Korber Straße",9.3741688954,48.8297061209
"5000109","Stuttgart, Zuffenhausen Friedhof",9.1814666322,48.8358995842
"5003008","Schöckingen, Ritterstraße",9.0275455769,48.844951241699995
"5031617","Mönsheim, Freibad",8.851845155700001,48.859643513099996
"5000094","Stuttgart, Wollinstraße",9.147144136,48.8373964333
"5006274","Stuttgart, Alpseeweg",9.2294181435,48.833538839
"5006105","Stuttgart, Salzwiesenstraße",9.1628475265,48.8364760126
